[
  {
    "address": "Vincom Plaza Hà Tĩnh, ngã tư đường Hàm Nghi giao Hà Huy Tập, phường Hà Huy Tập, Thành phố Hà Tĩnh, Tỉnh Hà Tĩnh",
    "lat": 18.3367,
    "lon": 105.895203,
    "type": "car"
  },
  {
    "address": "Vinhomes Marina, Đường Cầu Rào 2, phường Vĩnh Niệm, Quận Lê Chân, Thành phố Trung ương Hải Phòng",
    "lat": 20.820971,
    "lon": 106.689148,
    "type": "car"
  },
  {
    "address": "Bãi đỗ xe ngoài trời Wertepak Hà Tĩnh, xóm hòa Bình, xã Thịnh Lộc, Huyện Lộc Hà, Tỉnh Hà Tĩnh",
    "lat": 18.48855,
    "lon": 105.891556,
    "type": "both"
  },
  {
    "address": "Bãi đỗ xe ngoài trời Vinpearl Discovery Cửa Hội, Số 1, đường Bình Minh, phường Nghi Hải, Thị xã Cửa Lò, Tỉnh Nghệ An",
    "lat": 18.770851,
    "lon": 105.75724,
    "type": "car"
  },
  {
    "address": "Bãi đỗ xe Vincom+ Nam Đàn, khối Nam Bắc Sơn, Huyện Nam Đàn, Tỉnh Nghệ An",
    "lat": 18.706059,
    "lon": 105.494881,
    "type": "car"
  },
  {
    "address": "Bãi đỗ xe ngoài trời Vincom+ Thái Hòa, khối 8, Thị xã Thái Hoà, Tỉnh Nghệ An",
    "lat": 19.316675,
    "lon": 105.446007,
    "type": "car"
  },
  {
    "address": "Vincom+ Uông Bí, khu đô thị Yên Thanh, phường Yên Thanh, Thành phố Uông Bí, Tỉnh Quảng Ninh",
    "lat": 21.033751,
    "lon": 106.752342,
    "type": "car"
  },
  {
    "address": "Đường Võ Chí Công, Huyện Thăng Bình, Tỉnh Quảng Nam",
    "lat": 15.785498,
    "lon": 108.408577,
    "type": "both"
  },
  {
    "address": "Số 910A, Đường Ngô Quyền, phường An Hải Bắc, Quận Sơn Trà, Thành phố Trung ương Đà Nẵng",
    "lat": 16.071417,
    "lon": 108.230171,
    "type": "car"
  },
  {
    "address": "Số 7, Đường Trường Sa, phường Hòa Hải, Quận Ngũ Hành Sơn, Thành phố Trung ương Đà Nẵng",
    "lat": 16.005541,
    "lon": 108.266151,
    "type": "car"
  },
  {
    "address": "Bãi đỗ xe Vincom+ Kỳ Anh, phường Hưng Trí, Thị xã Kỳ Anh, Tỉnh Hà Tĩnh",
    "lat": 18.076391,
    "lon": 106.288803,
    "type": "car"
  },
  {
    "address": "Đường Hồ Chí Minh, Xã Trường Sơn, Huyện Hương Sơn, Tỉnh Hà Tĩnh",
    "lat": 18.4459,
    "lon": 105.4478,
    "type": "car"
  },
  {
    "address": "Bãi đỗ xe ngoài trời Đại lý ô tô VinFast chevrolet Vinh, đường 72m, khối 3, phường Hà Huy Tập, Thành phố Vinh, Tỉnh Nghệ An",
    "lat": 18.699089,
    "lon": 105.676193,
    "type": "car"
  },
  {
    "address": "Bãi đỗ xe ngoài trời cung lễ hội Restaurant số 1A, đường Trường Thi, phường Trường Thi, ngã 3 Phương Đông, Thành phố Vinh, Tỉnh Nghệ An",
    "lat": 18.66637,
    "lon": 105.688911,
    "type": "car"
  },
  {
    "address": "Trạm dừng nghỉ Kinh Bắc, cao tốc Nội Bài - Hạ Long, xã Đông Phong, Huyện Yên Phong, Tỉnh Bắc Ninh",
    "lat": 21.180721,
    "lon": 106.018898,
    "type": "car"
  },
  {
    "address": "Cửa hàng xăng dầu PVO Lệ Ninh, tổ 6, thị trấn Nông Trường Lệ Ninh, Huyện Lệ Thủy, Tỉnh Quảng Bình",
    "lat": 17.244801,
    "lon": 106.685791,
    "type": "car"
  },
  {
    "address": "Nhà dân, đường Hồ Chí Minh, xã Hương Hóa, Huyện Tuyên Hóa, Tỉnh Quảng Bình",
    "lat": 18.044567,
    "lon": 105.842369,
    "type": "car"
  },
  {
    "address": "Cửa hàng xăng dầu Lâm Thủy, Đường Hồ Chí Minh, bản Tân Ly, xã Lâm Thủy, Huyện Lệ Thủy, Tỉnh Quảng Bình",
    "lat": 17.08568,
    "lon": 106.569862,
    "type": "car"
  },
  {
    "address": "Gần vòng xuyến thành phố Tuyên Quang, quốc lộ 2, Thành phố Tuyên Quang, Tỉnh Tuyên Quang",
    "lat": 21.8216,
    "lon": 105.181702,
    "type": "car"
  },
  {
    "address": "Cách siêu thị Điện Máy Xanh 100m, đại lộ Thiên Trường hướng đi Hà Nam, quốc lộ 21B., Thành phố Nam Định, Tỉnh Nam Định",
    "lat": 20.440651,
    "lon": 106.152718,
    "type": "car"
  },
  {
    "address": "Quốc lộ 37, thị trấn Sơn Dương, Huyện Sơn Dương, Tỉnh Tuyên Quang",
    "lat": 21.700621,
    "lon": 105.369293,
    "type": "car"
  },
  {
    "address": "Trạm dừng nghỉ Ninh Bình (bến xe Nam Thành), mặt đường quốc lộ 1A hướng đi Tam Điệp, đường 30 Tháng 6, phường Nam Thành, Thành phố Ninh Bình, Tỉnh Ninh Bình",
    "lat": 20.231779,
    "lon": 105.965729,
    "type": "car"
  },
  {
    "address": "Số 1248, đường Nguyễn Bỉnh Khiêm, Phường Đông Hải 2, Quận Hải An, Thành phố Trung ương Hải Phòng",
    "lat": 20.852131,
    "lon": 106.725128,
    "type": "car"
  },
  {
    "address": "Hầm B1, cột G8, Vincom Imperia Hải Phòng, phường Thượng Lý, Quận Hồng Bàng, Thành phố Trung ương Hải Phòng",
    "lat": 20.862921,
    "lon": 106.661491,
    "type": "car"
  },
  {
    "address": "Đường Âu Cơ, tổ 6, phố Phước Hải, phường Cửa Đại, Thành phố Hội An, Tỉnh Quảng Nam",
    "lat": 15.881508,
    "lon": 108.389015,
    "type": "both"
  },
  {
    "address": "Mặt đất + Trong Hầm, Vincom Plaza Bắc Kạn, Số 48, Đường Trường Chinh, phường Phùng Chí Kiên, Thành phố Bắc Kạn, Tỉnh Bắc Kạn",
    "lat": 22.147985,
    "lon": 105.836998,
    "type": "car"
  },
  {
    "address": "Số 122, đường 16/4, phường Mỹ Hải, Thành phố Phan Rang-Tháp Chàm, Tỉnh Ninh Thuận",
    "lat": 11.563978,
    "lon": 109.008957,
    "type": "car"
  },
  {
    "address": "Vincom Ninh Hòa, đường 2/4, phường Ninh Hiệp, Thị xã Ninh Hòa, Tỉnh Khánh Hòa",
    "lat": 12.489096,
    "lon": 109.132133,
    "type": "car"
  },
  {
    "address": "Bãi đỗ xe mặt đất + Hầm B1, Vincom Plaza Móng Cái, phường Trần Phú, Thành phố Móng Cái, Tỉnh Quảng Ninh",
    "lat": 21.5324,
    "lon": 107.973099,
    "type": "car"
  },
  {
    "address": "Sảnh chính Vincom Plaza Long Biên, đường Hoa Phượng, khu đô thị Vinhomes Riveside, Quận Long Biên, Thành phố Trung ương Hà Nội",
    "lat": 21.05052,
    "lon": 105.91581,
    "type": "car"
  },
  {
    "address": "Bãi đỗ xe mặt đất, Vincom Plaza Hòa Bình, số 332, đường Cù Chính Lan, phường Đồng Tên, Thành phố Hòa Bình, Tỉnh Hoà Bình",
    "lat": 20.825741,
    "lon": 105.351257,
    "type": "car"
  },
  {
    "address": "Vincom Plaza Cẩm Phả, phường Cẩm Bình, Thành phố Cẩm Phả, Tỉnh Quảng Ninh",
    "lat": 21.005039,
    "lon": 107.290428,
    "type": "car"
  },
  {
    "address": "Vinpearl Resort Spa Hạ Long, đường Đỗ Sĩ Họa, phường Bãi Cháy, Thành phố Hạ Long, Tỉnh Quảng Ninh",
    "lat": 20.94763,
    "lon": 107.024673,
    "type": "car"
  },
  {
    "address": "Số 26, đường Lê Thánh Tôn, phường Nghĩa Chánh Nam, Thành phố Quảng Ngãi, Tỉnh Quảng Ngãi",
    "lat": 15.11356,
    "lon": 108.810173,
    "type": "car"
  },
  {
    "address": "Lô D6B2 & D7A1, khu 2, Bắc Bán đảo Cam Ranh, Huyện Cam Lâm, Tỉnh Khánh Hòa",
    "lat": 12.076197,
    "lon": 109.192223,
    "type": "car"
  },
  {
    "address": "Bãi xe ngoài trời Vincom Plaza Biên Hòa, số 1096, đường Phạm Văn Thuận, phường Tân Mai, Thành phố Biên Hòa, Tỉnh Đồng Nai",
    "lat": 10.957812,
    "lon": 106.843346,
    "type": "car"
  },
  {
    "address": "Vinpearl Phú Quốc Oasis, khu Bãi Dài, xã Gành Dầu, Thành phố Phú Quốc, Tỉnh Kiên Giang",
    "lat": 10.331391,
    "lon": 103.858086,
    "type": "car"
  },
  {
    "address": "Mặt sau Vincom Mỹ Tho, đường Hùng Vương, phường 1, Thành phố Mỹ Tho, Tỉnh Tiền Giang",
    "lat": 10.357895,
    "lon": 106.36338,
    "type": "car"
  },
  {
    "address": "Vincom+ Tĩnh Gia, thôn Nam Yến, Phường Nguyên Bình, Thị xã Nghi Sơn, Tỉnh Thanh Hóa",
    "lat": 19.436777,
    "lon": 105.771706,
    "type": "car"
  },
  {
    "address": "Vincom Plaza Việt Trì, phố Đoàn Kết, Thành phố Việt Trì, Tỉnh Phú Thọ",
    "lat": 21.31266,
    "lon": 105.395721,
    "type": "car"
  },
  {
    "address": "Số 15-17, đường Trần Phú, Phường 3, Thành phố Bạc Liêu, Tỉnh Bạc Liêu",
    "lat": 9.287257,
    "lon": 105.722115,
    "type": "car"
  },
  {
    "address": "Số 71, đường Trần Trọng Cung, phường Tân Thuận Đông, Quận 7, Thành phố Trung ương Hồ Chí Minh",
    "lat": 10.743723,
    "lon": 106.732834,
    "type": "car"
  },
  {
    "address": "Bãi đỗ xe TTTM Ocean Park, khu đô thị Vinhomes Ocean Park, xã Kiêu Kỵ, Huyện Gia Lâm, Thành phố Trung ương Hà Nội",
    "lat": 20.994547,
    "lon": 105.959839,
    "type": "car"
  },
  {
    "address": "Bãi xe ngoài trời, bên sườn Vincom Mega Mall Smart City, Quận Nam Từ Liêm, Thành phố Trung ương Hà Nội",
    "lat": 21.006189,
    "lon": 105.753479,
    "type": "car"
  },
  {
    "address": "Bãi xe ngoài trời khu vực bên trái của Vincom Plaza Dĩ An, số 3, Đường tỉnh 743B, khu phố Thống Nhất 1, phường Dĩ An, Thành phố Dĩ An, Tỉnh Bình Dương",
    "lat": 10.908707,
    "lon": 106.74173,
    "type": "car"
  },
  {
    "address": "Nguyễn Tất Thành, khóm 4, phường 1, Thành phố Sa Đéc, Tỉnh Đồng Tháp",
    "lat": 10.291499,
    "lon": 105.763855,
    "type": "car"
  },
  {
    "address": "Số 55 Phạm Thái Bường, phường 4, Thành phố Vĩnh Long, Tỉnh Vĩnh Long",
    "lat": 10.246242,
    "lon": 105.977036,
    "type": "car"
  },
  {
    "address": "Số 1 đường 3/2, khu vực 3, phường 5, Thành phố Vị Thanh, Tỉnh Hậu Giang",
    "lat": 9.783597,
    "lon": 105.469521,
    "type": "car"
  },
  {
    "address": "Số 2 Phan Đình Phùng, phường Quyết Thắng, Thành phố Kon Tum, Tỉnh Kon Tum",
    "lat": 14.348725,
    "lon": 108.000664,
    "type": "car"
  },
  {
    "address": "Số 213 quốc lộ 1A ấp Tân Quới Tây, xã Trường An, Thành phố Vĩnh Long, Tỉnh Vĩnh Long",
    "lat": 10.253262,
    "lon": 105.928627,
    "type": "car"
  },
  {
    "address": "Siêu thị Lan Chi Ba Vì, quốc lộ 32, xã Vật Lại, Huyện Ba Vì, Thành phố Trung ương Hà Nội",
    "lat": 21.206345,
    "lon": 105.416,
    "type": "both"
  },
  {
    "address": "Cửa hàng xăng dầu Việt Hùng, Phố Mới, xã Yên Đĩnh, Huyện Chợ Mới, Tỉnh Bắc Kạn",
    "lat": 21.897263,
    "lon": 105.790024,
    "type": "car"
  },
  {
    "address": "TTTM GO! Vĩnh Phúc, phường Khai Quang, Thành phố Vĩnh Yên, Tỉnh Vĩnh Phúc",
    "lat": 21.293098,
    "lon": 105.626266,
    "type": "car"
  },
  {
    "address": "Trạm dừng nghỉ Vạn Hương Mai, Quốc lộ 91, ấp Mỹ Phó, xã Mỹ Đức, Huyện Châu Phú, Tỉnh An Giang",
    "lat": 10.672518,
    "lon": 105.163567,
    "type": "car"
  },
  {
    "address": "Số 2067, Đại Lộ Hùng Vương, phường Cam Thuận, Thành phố Cam Ranh, Tỉnh Khánh Hòa",
    "lat": 11.917951,
    "lon": 109.15078,
    "type": "car"
  },
  {
    "address": "Bãi đỗ xe TTTM Big C Thăng Long, số 222 Trần Duy Hưng, phường Trung Hoà, Quận Cầu Giấy, Thành phố Trung ương Hà Nội",
    "lat": 21.006773,
    "lon": 105.793716,
    "type": "both"
  },
  {
    "address": "Thôn A Rong Dưới, xã A Ngo, Huyện Đa Krông, Tỉnh Quảng Trị",
    "lat": 16.374001,
    "lon": 107.007896,
    "type": "car"
  },
  {
    "address": "Quốc lộ 1A, Thôn Kim Đầu, xã Thanh An, Huyện Cam Lộ, Tỉnh Quảng Trị",
    "lat": 16.8643,
    "lon": 107.082397,
    "type": "car"
  },
  {
    "address": "Trạm dừng nghỉ Thiên Phúc, đường tránh Đồng Hới, phường Đồng Phú, Thành phố Đồng Hới, Tỉnh Quảng Bình",
    "lat": 17.476166,
    "lon": 106.574593,
    "type": "car"
  },
  {
    "address": "Gamuda City, bãi xe công viên Yên Sở, quốc lộ 1A, phường Thịnh Liệt, Quận Hoàng Mai, Thành phố Trung ương Hà Nội",
    "lat": 20.964708,
    "lon": 105.853188,
    "type": "car"
  },
  {
    "address": "Trạm dừng nghỉ CT04 V52 chiều Hà Nội - Hải Phòng, xã Hoàng Diệu, Huyện Gia Lộc, Tỉnh Hải Dương",
    "lat": 20.857233,
    "lon": 106.332809,
    "type": "car"
  },
  {
    "address": "Trạm dừng nghỉ CT04 V52 chiều Hải Phòng - Hà Nội, xã Hoàng Diệu, Huyện Gia Lộc, Tỉnh Hải Dương",
    "lat": 20.859716,
    "lon": 106.335342,
    "type": "car"
  },
  {
    "address": "Cửa Hàng Xăng Dầu Quang Liêm, quốc lộ 56, tổ 28, thôn Tân phú, Xã Bầu Chính, Huyện Châu Đức, Tỉnh Bà Rịa - Vũng Tàu",
    "lat": 10.66397,
    "lon": 107.248566,
    "type": "car"
  },
  {
    "address": "Quốc lộ 14, km 1381 + 340, khối 1, thị trấn Khâm Đức, Huyện Phước Sơn, Tỉnh Quảng Nam",
    "lat": 15.428599,
    "lon": 107.78093,
    "type": "both"
  },
  {
    "address": "Trạm dừng nghỉ CT04 km77 chiều Hà Nội - Hải Phòng, xã Quốc Tuấn, Huyện An Lão, Thành phố Trung ương Hải Phòng",
    "lat": 20.792961,
    "lon": 106.547485,
    "type": "car"
  },
  {
    "address": "Trạm dừng nghỉ CT04 km77 chiều Hải Phòng - Hà Nội, xã Quốc Tuấn, Huyện An Lão, Thành phố Trung ương Hải Phòng",
    "lat": 20.794243,
    "lon": 106.548805,
    "type": "car"
  },
  {
    "address": "Vincom+ Chí Linh, đường km4, khu dân cư Nguyễn Trãi 1, phường Sao Đỏ, Thành phố Chí Linh, Tỉnh Hải Dương",
    "lat": 21.110424,
    "lon": 106.389839,
    "type": "car"
  },
  {
    "address": "Bản Mu Kít, xã Cò Nòi, Huyện Mai Sơn, Tỉnh Sơn La",
    "lat": 21.142424,
    "lon": 104.148804,
    "type": "car"
  },
  {
    "address": "TTTM GO! Trà Vinh, 414 Võ Nguyên Giáp, phường 7, Thành phố Trà Vinh, Tỉnh Trà Vinh",
    "lat": 9.924048,
    "lon": 106.32782,
    "type": "car"
  },
  {
    "address": "Cửa hàng xăng dầu Tân Lạc, thị trấn Mường Khiến, Huyện Tân Lạc, Tỉnh Hoà Bình",
    "lat": 20.619947,
    "lon": 105.27462,
    "type": "car"
  },
  {
    "address": "Trạm dừng nghỉ Tiên Du Bắc Ninh, quốc lộ 1A, xã Liên bảo, Huyện Tiên Du, Tỉnh Bắc Ninh",
    "lat": 21.12351,
    "lon": 106.008072,
    "type": "car"
  },
  {
    "address": "Quốc lộ 14, số 416, phường Tân Phú, Thành phố Đồng Xoài, Tỉnh Bình Phước",
    "lat": 11.537632,
    "lon": 106.900635,
    "type": "car"
  },
  {
    "address": "CT04 km24, xã Tân Việt, Huyện Yên Mỹ, Tỉnh Hưng Yên",
    "lat": 20.846857,
    "lon": 106.059555,
    "type": "car"
  },
  {
    "address": "Bãi đỗ xe TTTM Big C Ngọc Châu, phường Nhị Châu, Thành phố Hải Dương, Tỉnh Hải Dương",
    "lat": 20.947077,
    "lon": 106.346519,
    "type": "both"
  },
  {
    "address": "Cửa hàng xăng dầu Petrolimex Duy Cường số 1 Quốc lộ 19, thôn 6, xã Hà Tam, Huyện Đăk Pơ, Tỉnh Gia Lai",
    "lat": 13.976425,
    "lon": 108.479721,
    "type": "car"
  },
  {
    "address": "Quốc lộ 1A, km21, xã Hà Hồi, Huyện Thường Tín, Thành phố Trung ương Hà Nội",
    "lat": 20.857622,
    "lon": 105.869469,
    "type": "car"
  },
  {
    "address": "Showroom Hiền Nhung Auto quốc lộ 2, thôn 1, xã Yên Kiện, Huyện Đoan Hùng, Tỉnh Phú Thọ",
    "lat": 21.596092,
    "lon": 105.186378,
    "type": "car"
  },
  {
    "address": "Trạm sạc ngoài trời, cửa hàng xăng dầu Petrolimex Hồng Nhung, đường 32, khu 1, xã Tân Phú, Huyện Tân Sơn, Tỉnh Phú Thọ",
    "lat": 21.226669,
    "lon": 104.990997,
    "type": "car"
  },
  {
    "address": "Bãi đỗ xe khu du lịch Thác Bobla, quốc lộ 20, thôn 8, xã Liên Đầm, Huyện Di Linh, Tỉnh Lâm Đồng",
    "lat": 11.574323,
    "lon": 108.017052,
    "type": "car"
  },
  {
    "address": "Km316+730, quốc lộ 1A, xã Hoằng Quỳ, Huyện Hoằng Hóa, Tỉnh Thanh Hóa",
    "lat": 19.870975,
    "lon": 105.809822,
    "type": "car"
  },
  {
    "address": "Quốc lộ 60, Ấp 1, xã Hữu Định, Huyện Châu Thành, Tỉnh Bến Tre",
    "lat": 10.254048,
    "lon": 106.359207,
    "type": "car"
  },
  {
    "address": "Thôn Phước Lộc, xã Lộc Tiến, Huyện Phú Lộc, Tỉnh Thừa Thiên Huế",
    "lat": 16.27235,
    "lon": 107.9655,
    "type": "car"
  },
  {
    "address": "Cao tốc 04 Km24, chiều Hà Nội-Hải Phòng xã Tân Việt, Huyện Yên Mỹ, Tỉnh Hưng Yên",
    "lat": 20.845188,
    "lon": 106.059273,
    "type": "car"
  },
  {
    "address": "Thôn 15, Huyện Krông Búk, Tỉnh Đắk Lắk",
    "lat": 12.978803,
    "lon": 108.234169,
    "type": "car"
  },
  {
    "address": "Km 105 , Thôn 1, Huyện Ea H'leo, Tỉnh Đắk Lắk",
    "lat": 13.387005,
    "lon": 108.107468,
    "type": "car"
  },
  {
    "address": "Số 2, đường Phạm Ngọc Thạch, Quận Đống Đa, Thành phố Trung ương Hà Nội",
    "lat": 21.006107,
    "lon": 105.831696,
    "type": "car"
  },
  {
    "address": "Km1613, quốc lộ 1A, khu phố 5, Huyện Tuy Phong, Tỉnh Bình Thuận",
    "lat": 11.228845,
    "lon": 108.71833,
    "type": "car"
  },
  {
    "address": "QL1A, km 984, xã Bình An, Huyện Thăng Bình, Tỉnh Quảng Nam",
    "lat": 15.631853,
    "lon": 108.434738,
    "type": "both"
  },
  {
    "address": "Quốc lộ 1A, Xã Cát Trinh, Huyện Phù Cát, Tỉnh Bình Định",
    "lat": 14.015629,
    "lon": 109.055031,
    "type": "car"
  },
  {
    "address": "Khu dân cư Thới Hòa, Thị xã Bến Cát, Tỉnh Bình Dương, Thị xã Bến Cát, Tỉnh Bình Dương",
    "lat": 11.085907,
    "lon": 106.626732,
    "type": "car"
  },
  {
    "address": "Đại lộ Hùng Vương, Xã Bình Kiến, Thành phố Tuy Hoà, Tỉnh Phú Yên",
    "lat": 13.131329,
    "lon": 109.28933,
    "type": "car"
  },
  {
    "address": "Đường Phạm Văn Đồng, Thành phố Lai Châu, Tỉnh Lai Châu",
    "lat": 22.390068,
    "lon": 103.477287,
    "type": "both"
  },
  {
    "address": "Đại An, Tân Quang, Huyện Văn Lâm, Tỉnh Hưng Yên",
    "lat": 20.958599,
    "lon": 105.974701,
    "type": "car"
  },
  {
    "address": "Khối Sơn Thủy, Quốc lộ 6, Thị trấn Tuần Giáo, Huyện Tuần Giáo, Tỉnh Điện Biên",
    "lat": 21.583363,
    "lon": 103.422905,
    "type": "car"
  },
  {
    "address": "Tổ 1, Thành phố Hà Giang, Tỉnh Hà Giang",
    "lat": 22.806854,
    "lon": 104.978462,
    "type": "car"
  },
  {
    "address": "Quốc lộ 1A, Diễn An, Huyện Diễn Châu, Tỉnh Nghệ An",
    "lat": 18.901733,
    "lon": 105.603882,
    "type": "car"
  },
  {
    "address": "Khu cảnh quan công viên trung tâm, Huyện Văn Giang, Tỉnh Hưng Yên",
    "lat": 20.94664,
    "lon": 105.983192,
    "type": "car"
  },
  {
    "address": "Trạm dừng nghỉ Tây Ninh Bình, Thành phố Ninh Bình, Tỉnh Ninh Bình",
    "lat": 20.212446,
    "lon": 105.990921,
    "type": "car"
  },
  {
    "address": "Ấp Vĩnh Phú A, Huyện Phước Long, Tỉnh Bạc Liêu",
    "lat": 9.473225,
    "lon": 105.518829,
    "type": "car"
  },
  {
    "address": "Số 1211, Đường Trường Chinh, Thành phố Pleiku, Tỉnh Gia Lai",
    "lat": 13.906575,
    "lon": 108.015862,
    "type": "car"
  },
  {
    "address": "Thôn Ơi ly B, Huyện Phú Thiện, Tỉnh Gia Lai",
    "lat": 13.435787,
    "lon": 108.418831,
    "type": "car"
  },
  {
    "address": "Quốc lộ 1A, đường 3/2, khu vực Lợi Nguyên, Quận Ninh Kiều, Thành phố Trung ương Cần Thơ",
    "lat": 10.010122,
    "lon": 105.75145,
    "type": "car"
  },
  {
    "address": "Thôn Sỏi, Xã Phú Thành, Huyện Lạc Thủy, Tỉnh Hoà Bình",
    "lat": 20.566196,
    "lon": 105.705009,
    "type": "car"
  },
  {
    "address": "Yên Quang, Huyện Lương Sơn, Tỉnh Hoà Bình",
    "lat": 20.988249,
    "lon": 105.408897,
    "type": "car"
  },
  {
    "address": "Gia Nghĩa, Thành phố Gia Nghĩa, Tỉnh Đắk Nông",
    "lat": 11.991972,
    "lon": 107.669113,
    "type": "both"
  },
  {
    "address": "Đường tỉnh 682, Thôn Đức Lễ, Huyện Đắk Mil, Tỉnh Đắk Nông",
    "lat": 12.443871,
    "lon": 107.661118,
    "type": "car"
  },
  {
    "address": "Km 665+500 (Phải tuyến), Quốc lộ 1A, Thành phố Đồng Hới, Tỉnh Quảng Bình",
    "lat": 17.448074,
    "lon": 106.631004,
    "type": "car"
  },
  {
    "address": "Ấp Long An, Xã Tân Phú Thạnh, Huyện Châu Thành A, Tỉnh Hậu Giang",
    "lat": 9.919461,
    "lon": 105.730576,
    "type": "car"
  },
  {
    "address": "Đường cao tốc La Sơn - Túy Loan, xã Lộc Bổn, Huyện Phú Lộc, Tỉnh Thừa Thiên Huế",
    "lat": 16.298176,
    "lon": 107.71405,
    "type": "car"
  },
  {
    "address": "Bản Trò 2, Xã Huy Hạ, Huyện Phù Yên, Tỉnh Sơn La",
    "lat": 21.2495,
    "lon": 104.639603,
    "type": "car"
  },
  {
    "address": "Thôn 1, xã Tông Lạnh, Huyện Thuận Châu, Tỉnh Sơn La",
    "lat": 21.419764,
    "lon": 103.763519,
    "type": "car"
  },
  {
    "address": "Thị trấn Vĩnh Tuy, Huyện Bắc Quang, Tỉnh Hà Giang",
    "lat": 22.240902,
    "lon": 104.91703,
    "type": "car"
  },
  {
    "address": "Phường Ngọc Xuyên, Quận Đồ Sơn, Thành phố Trung ương Hải Phòng",
    "lat": 20.724564,
    "lon": 106.774109,
    "type": "car"
  },
  {
    "address": "Quốc lộ 18, Xã Đông Hải, Huyện Tiên Yên, Tỉnh Quảng Ninh",
    "lat": 21.335754,
    "lon": 107.503746,
    "type": "car"
  },
  {
    "address": "Quốc lộ 4A, Xã Đại Đồng, Huyện Tràng Định, Tỉnh Lạng Sơn",
    "lat": 22.246655,
    "lon": 106.485329,
    "type": "car"
  },
  {
    "address": "Quốc lộ 4B, Thị trấn Đình lập, Huyện Đình Lập, Tỉnh Lạng Sơn",
    "lat": 21.551044,
    "lon": 107.098709,
    "type": "car"
  },
  {
    "address": "Số 15-17, đường Cộng Hòa, Quận Tân Bình, Thành phố Trung ương Hồ Chí Minh",
    "lat": 10.80076,
    "lon": 106.658463,
    "type": "car"
  },
  {
    "address": "Khối 12, Thị Trấn Quỳ Hợp, Huyện Quỳ Hợp, Tỉnh Nghệ An",
    "lat": 19.32519,
    "lon": 105.1679,
    "type": "car"
  },
  {
    "address": "Long Bình, Thành phố Thủ Đức, Thành phố Trung ương Hồ Chí Minh",
    "lat": 10.84349,
    "lon": 106.8423,
    "type": "car"
  },
  {
    "address": "Bình Thạnh, Thành phố Hồng Ngự, Tỉnh Đồng Tháp",
    "lat": 10.81553,
    "lon": 105.361801,
    "type": "car"
  },
  {
    "address": "Số 179, Đường Quang Trung, Quận Gò Vấp, Thành phố Trung ương Hồ Chí Minh",
    "lat": 10.82907,
    "lon": 106.672897,
    "type": "car"
  },
  {
    "address": "Số 491, Đường Lê Văn Hiến, Quận Ngũ Hành Sơn, Thành phố Trung ương Đà Nẵng",
    "lat": 16.01915,
    "lon": 108.253197,
    "type": "car"
  },
  {
    "address": "Đường Cách Mạng Tháng 8, Quận Cẩm Lệ, Thành phố Trung ương Đà Nẵng",
    "lat": 16.020161,
    "lon": 108.210602,
    "type": "car"
  },
  {
    "address": "Duy Tân, Quận Hải Châu, Thành phố Trung ương Đà Nẵng",
    "lat": 16.0499,
    "lon": 108.209702,
    "type": "car"
  },
  {
    "address": "Đường Nguyễn Thái Học, Thành phố Huế, Tỉnh Thừa Thiên Huế",
    "lat": 16.467264,
    "lon": 107.598709,
    "type": "car"
  },
  {
    "address": "Cầu km31, Quốc lộ 4D, Thị xã Sa Pa, Tỉnh Lào Cai",
    "lat": 22.36705,
    "lon": 103.868202,
    "type": "car"
  },
  {
    "address": "Đường tỉnh 181, Cán Tỷ, Huyện Quản Bạ, Tỉnh Hà Giang",
    "lat": 23.084141,
    "lon": 105.037498,
    "type": "car"
  },
  {
    "address": "Bảo Hưng, Huyện Trấn Yên, Tỉnh Yên Bái",
    "lat": 21.67452,
    "lon": 104.879501,
    "type": "car"
  },
  {
    "address": "Quốc lộ 34, Huyện Bảo Lâm, Tỉnh Cao Bằng",
    "lat": 22.93581,
    "lon": 105.553299,
    "type": "car"
  },
  {
    "address": "Số 166, Đường Duyên Hải, Ấp Long Thạnh, Xã Long Hòa, Huyện Cần Giờ, Thành phố Trung ương Hồ Chí Minh",
    "lat": 10.395451,
    "lon": 106.916199,
    "type": "car"
  },
  {
    "address": "Đường Lam Sơn, Phường Lam Sơn, Thành phố Hưng Yên, Tỉnh Hưng Yên",
    "lat": 20.674139,
    "lon": 106.054436,
    "type": "car"
  },
  {
    "address": "Tổ 7, Thị trấn Phố Ràng, Huyện Bảo Yên, Tỉnh Lào Cai",
    "lat": 22.227343,
    "lon": 104.481941,
    "type": "car"
  },
  {
    "address": "Đại lộ Trần Hưng Đạo, Đường H1, Tiểu khu đô thị 13, Phường Bắc Lệnh, Thành phố Lào Cai, Tỉnh Lào Cai",
    "lat": 22.4356,
    "lon": 104.014442,
    "type": "car"
  },
  {
    "address": "Số 282, Quốc lộ 37, Thị trấn Đồi Ngô, Huyện Lục Nam, Tỉnh Bắc Giang",
    "lat": 21.277605,
    "lon": 106.382912,
    "type": "car"
  },
  {
    "address": "Ấp An Phú, xã Mỹ An Hưng B, Huyện Lấp Vò, Tỉnh Đồng Tháp",
    "lat": 10.387503,
    "lon": 105.6269,
    "type": "car"
  },
  {
    "address": "387 Võ Văn Kiệt, Thị trấn Tràm Chim, Huyện Tam Nông, Tỉnh Đồng Tháp",
    "lat": 10.66959,
    "lon": 105.561935,
    "type": "car"
  },
  {
    "address": "Số 109, Quốc lộ 1A, Xã Long Hiệp, Huyện Bến Lức, Tỉnh Long An",
    "lat": 10.633879,
    "lon": 106.519859,
    "type": "car"
  },
  {
    "address": "Xã Hóa Thanh, Huyện Minh Hóa, Tỉnh Quảng Bình",
    "lat": 17.907125,
    "lon": 105.822067,
    "type": "car"
  },
  {
    "address": "Số 443, Đường Phan Trọng Tuệ, Xã Thanh Liệt, Huyện Thanh Trì, Thành phố Trung ương Hà Nội",
    "lat": 20.952042,
    "lon": 105.817986,
    "type": "car"
  },
  {
    "address": "Khóm 3, Thị trấn Rạch Gốc, Huyện Ngọc Hiển, Tỉnh Cà Mau",
    "lat": 8.634889,
    "lon": 105.013184,
    "type": "car"
  },
  {
    "address": "Kilomet 86+180, phía trái tuyến Quốc Lộ 19C theo hướng Đông – Tây, Thôn Hòa Bình, Xã Sơn Định, Huyện Sơn Hòa, Tỉnh Phú Yên",
    "lat": 13.196659,
    "lon": 109.056984,
    "type": "car"
  },
  {
    "address": "Thôn Chớp, Xã Lương Phong, Huyện Hiệp Hòa, Tỉnh Bắc Giang",
    "lat": 21.346342,
    "lon": 105.990601,
    "type": "car"
  },
  {
    "address": "Thôn 7, Xã Thanh Thủy, Huyện Thanh Chương, Tỉnh Nghệ An",
    "lat": 18.692221,
    "lon": 105.300652,
    "type": "car"
  },
  {
    "address": "Khóm 2, Trị trấn Thới Bình, Huyện Thới Bình, Tỉnh Cà Mau",
    "lat": 9.363014,
    "lon": 105.097733,
    "type": "car"
  },
  {
    "address": "Xã Yên Thành, Huyện Quang Bình, Tỉnh Hà Giang",
    "lat": 22.410591,
    "lon": 104.587029,
    "type": "car"
  },
  {
    "address": "Đường 3/2 phường 12,TP Vũng Tàu, Thành phố Vũng Tàu, Tỉnh Bà Rịa - Vũng Tàu",
    "lat": 10.4101,
    "lon": 107.155701,
    "type": "car"
  },
  {
    "address": "Phố Phạm Thế Hiển, Thị trấn Diêm Điền, Huyện Thái Thụy, Tỉnh Thái Bình",
    "lat": 20.563713,
    "lon": 106.565376,
    "type": "car"
  },
  {
    "address": "Số 8, đường Quang Trung, phường Quang Trung, Quận Hà Đông, Thành phố Trung ương Hà Nội",
    "lat": 20.972666,
    "lon": 105.777496,
    "type": "car"
  },
  {
    "address": "Kilomet 152, cao tốc Hà Nội – Bắc Giang, khu phố Doi Sóc, phường Phù Chẩn, Thành phố Từ Sơn, Tỉnh Bắc Ninh",
    "lat": 21.092207,
    "lon": 105.960587,
    "type": "car"
  },
  {
    "address": "Số 105, đường Hồ Biểu Chánh, Long Chánh, Thị xã Gò Công, Tỉnh Tiền Giang",
    "lat": 10.363777,
    "lon": 106.663521,
    "type": "car"
  },
  {
    "address": "Thôn Riễu, xã Dĩnh Trì, Thành phố Bắc Giang, Tỉnh Bắc Giang",
    "lat": 21.287622,
    "lon": 106.230309,
    "type": "car"
  },
  {
    "address": "Đường Bình Minh, phường Nghi Hải, Thị xã Cửa Lò, Tỉnh Nghệ An",
    "lat": 18.771152,
    "lon": 105.751839,
    "type": "car"
  },
  {
    "address": "Tổ 12, Đường Trần Phú, PhườngMinh Khai, Thành phố Hà Giang, Tỉnh Hà Giang",
    "lat": 22.833702,
    "lon": 104.989059,
    "type": "car"
  },
  {
    "address": "DT 922 Ấp Thới Phong A, Thị trấn Thới Lai, Huyện Thới Lai, Thành phố Trung ương Cần Thơ",
    "lat": 10.066373,
    "lon": 105.555031,
    "type": "car"
  },
  {
    "address": "Thôn Làng Thành, Thị trấn Đồng Mỏ, Huyện Chi Lăng, Tỉnh Lạng Sơn",
    "lat": 21.626797,
    "lon": 106.560188,
    "type": "car"
  },
  {
    "address": "Tổ 16, Ấp Lò Vôi, Xã Phước Hưng, Huyện Long Điền, Tỉnh Bà Rịa - Vũng Tàu",
    "lat": 10.4148,
    "lon": 107.225304,
    "type": "car"
  },
  {
    "address": "Ngã tư Phụ Sơn, Phường An Lưu, Thị xã Kinh Môn, Tỉnh Hải Dương",
    "lat": 20.99898,
    "lon": 106.542137,
    "type": "car"
  },
  {
    "address": "Đảo Vũ Yên, Phường Đông Hải 1, Quận Hải An, Thành phố Trung ương Hải Phòng",
    "lat": 20.870586,
    "lon": 106.748909,
    "type": "car"
  },
  {
    "address": "Ấp Thân Bình, Xã Thân Cửu Nghĩa, Huyện Châu Thành, Tỉnh Tiền Giang",
    "lat": 10.424807,
    "lon": 106.319923,
    "type": "car"
  },
  {
    "address": "Đường Võ Nguyên Giáp, Thôn Trung Nam, Thị Trấn Diên Khánh, Huyện Diên Khánh, Tỉnh Khánh Hòa",
    "lat": 12.244257,
    "lon": 109.098686,
    "type": "car"
  },
  {
    "address": "Số 1765A, Đại Lộ Bình Dương, Khu phố 1, Phường Hiệp An, Thành phố Thủ Dầu Một, Tỉnh Bình Dương",
    "lat": 11.0337,
    "lon": 106.634903,
    "type": "car"
  },
  {
    "address": "Thôn Mỹ Cầu, Xã Tân Mỹ, Thành phố Bắc Giang, Tỉnh Bắc Giang",
    "lat": 21.275518,
    "lon": 106.165619,
    "type": "car"
  },
  {
    "address": "Ấp An Phước, Xã Bình An, Huyện Châu Thành, Tỉnh Kiên Giang",
    "lat": 9.879052,
    "lon": 105.136108,
    "type": "car"
  },
  {
    "address": "Đường Phạm Hùng, Phường Ba Láng, Quận Cái Răng, Thành phố Trung ương Cần Thơ",
    "lat": 9.986286,
    "lon": 105.747437,
    "type": "car"
  },
  {
    "address": "Thôn Từ Hồ, Xã Yên Phú, Huyện Yên Mỹ, Tỉnh Hưng Yên",
    "lat": 20.892206,
    "lon": 105.975304,
    "type": "car"
  },
  {
    "address": "Thôn Yên Thành, Xã Yên Trạch, Huyện Cao Lộc, Tỉnh Lạng Sơn",
    "lat": 21.815445,
    "lon": 106.770241,
    "type": "car"
  },
  {
    "address": "Tổ dân phố 4, Thị trấn Nham Biền, Huyện Yên Dũng, Tỉnh Bắc Giang",
    "lat": 21.196049,
    "lon": 106.249641,
    "type": "car"
  },
  {
    "address": "Xã Ninh Phúc, Thành phố Ninh Bình, Tỉnh Ninh Bình",
    "lat": 20.210627,
    "lon": 105.992172,
    "type": "car"
  },
  {
    "address": "Xã Nghĩa Ninh, Thành phố Đồng Hới, Tỉnh Quảng Bình",
    "lat": 17.425795,
    "lon": 106.593002,
    "type": "car"
  },
  {
    "address": "Huyện Thuỷ Nguyên, Huyện Thuỷ Nguyên, Thành phố Trung ương Hải Phòng",
    "lat": 20.875736,
    "lon": 106.71627,
    "type": "car"
  },
  {
    "address": "Huyện Củ Chi, Huyện Củ Chi, Thành phố Trung ương Hồ Chí Minh",
    "lat": 10.924228,
    "lon": 106.516914,
    "type": "car"
  },
  {
    "address": "202B Hoàng Văn Thụ, Quận Phú Nhuận, Thành phố Trung ương Hồ Chí Minh",
    "lat": 10.800171,
    "lon": 106.669601,
    "type": "car"
  },
  {
    "address": "Khu 4, 36ha, Vinhome Grand Park, ThủĐức, Thành phố Thủ Đức, Thành phố Trung ương Hồ Chí Minh",
    "lat": 10.839926,
    "lon": 106.848076,
    "type": "car"
  },
  {
    "address": "Vinhomes Globle Gate – Đường Trường Sa, Huyện Đông Anh, Thành phố Trung ương Hà Nội",
    "lat": 21.084431,
    "lon": 105.865959,
    "type": "both"
  },
  {
    "address": "Đông Anh, Hà Nội, Việt Nam, Huyện Đông Anh, Thành phố Trung ương Hà Nội",
    "lat": 21.083302,
    "lon": 105.864532,
    "type": "both"
  },
  {
    "address": "Hầm B1, Vincom Plaza Hạ Long, khu Cột Đồng Hồ, phường Bạch Đằng, Thành phố Hạ Long, Tỉnh Quảng Ninh",
    "lat": 20.949909,
    "lon": 107.084007,
    "type": "car"
  },
  {
    "address": "Vinmec Hạ Long, số 10A, đường Lê Thánh Tông, phường Hồng Gai, Thành phố Hạ Long, Tỉnh Quảng Ninh",
    "lat": 20.951941,
    "lon": 107.071999,
    "type": "car"
  },
  {
    "address": "Bãi đỗ xe ngoài trời, Cửa hàng xăng dầu Đại Đồng Thành, Á Lữ, Đại Đồng Thành, Huyện Thuận Thành, Tỉnh Bắc Ninh",
    "lat": 21.05854,
    "lon": 106.052238,
    "type": "car"
  },
  {
    "address": "Đường Lạch Huyện, Huyện Cát Hải, Thành phố Trung ương Hải Phòng",
    "lat": 20.80686,
    "lon": 106.87429,
    "type": "car"
  },
  {
    "address": "Lô CC2-Dự án Thành Tô, phường Thành Tô, Quận Hải An, Thành phố Trung ương Hải Phòng",
    "lat": 20.827662,
    "lon": 106.719742,
    "type": "car"
  },
  {
    "address": "Thôn Lương Xá, Xã Kim Liên, Huyện Kim Thành, Tỉnh Hải Dương",
    "lat": 20.95735,
    "lon": 106.526398,
    "type": "car"
  },
  {
    "address": "Quốc lộ 10, thôn Vũ Hạ, Huyện Quỳnh Phụ, Tỉnh Thái Bình",
    "lat": 20.636206,
    "lon": 106.406853,
    "type": "car"
  },
  {
    "address": "Đường tỉnh 458, Thị Trấn Kiến Xương, Huyện Kiến Xương, Tỉnh Thái Bình",
    "lat": 20.388599,
    "lon": 106.433769,
    "type": "car"
  },
  {
    "address": "Km số 2, đường Văn Cao, Thành phố Nam Định, Tỉnh Nam Định",
    "lat": 20.411367,
    "lon": 106.159103,
    "type": "car"
  },
  {
    "address": "Quốc lộ 1A, phường Tây Sơn, Thành phố Tam Điệp, Tỉnh Ninh Bình",
    "lat": 20.149237,
    "lon": 105.897995,
    "type": "car"
  },
  {
    "address": "Quốc lộ 34, thị trấn Phú Yên, Huyện Bắc Mê, Tỉnh Hà Giang",
    "lat": 22.733101,
    "lon": 105.358101,
    "type": "car"
  },
  {
    "address": "Quốc lộ 48A, xã Quỳnh Tam, Huyện Quỳnh Lưu, Tỉnh Nghệ An",
    "lat": 19.189569,
    "lon": 105.535439,
    "type": "car"
  },
  {
    "address": "Quốc lộ 15B, phường Thạch Linh, Thành phố Hà Tĩnh, Tỉnh Hà Tĩnh",
    "lat": 18.350521,
    "lon": 105.883438,
    "type": "car"
  },
  {
    "address": "Quốc lộ 18, phường Đại Yên, Thành phố Hạ Long, Tỉnh Quảng Ninh",
    "lat": 20.964577,
    "lon": 106.940903,
    "type": "car"
  },
  {
    "address": "Phường Ninh Dương, Thành phố Móng Cái, Tỉnh Quảng Ninh",
    "lat": 21.507833,
    "lon": 107.960098,
    "type": "car"
  },
  {
    "address": "Quốc lộ 18, đường tránh Lý Thường Kiệt, thị trấn Tiên Yên, Huyện Tiên Yên, Tỉnh Quảng Ninh",
    "lat": 21.334208,
    "lon": 107.401764,
    "type": "car"
  },
  {
    "address": "Quốc lộ 39A, xã Minh Khai, Huyện Hưng Hà, Tỉnh Thái Bình",
    "lat": 20.57946,
    "lon": 106.243782,
    "type": "car"
  },
  {
    "address": "Quốc lộ 39B, xã Vũ Chính, Thành phố Thái Bình, Tỉnh Thái Bình",
    "lat": 20.433481,
    "lon": 106.36499,
    "type": "car"
  },
  {
    "address": "Quốc lộ 39B, xã An Ninh, Huyện Tiền Hải, Tỉnh Thái Bình",
    "lat": 20.400829,
    "lon": 106.48951,
    "type": "car"
  },
  {
    "address": "Quốc lộ 37B, xã Tây An, Thị trấn Tiền Hải, Huyện Tiền Hải, Tỉnh Thái Bình",
    "lat": 20.414907,
    "lon": 106.491646,
    "type": "car"
  },
  {
    "address": "Quốc lộ 10, xã Tam Quang, Huyện Vũ Thư, Tỉnh Thái Bình",
    "lat": 20.437729,
    "lon": 106.243332,
    "type": "car"
  },
  {
    "address": "Quốc lộ 3, xã Bá Xuyên, Thành phố Sông Công, Tỉnh Thái Nguyên",
    "lat": 21.497913,
    "lon": 105.831558,
    "type": "car"
  },
  {
    "address": "Quốc lộ 2, thôn Hòa Bình, xã Đội Bình, Huyện Yên Sơn, Tỉnh Tuyên Quang",
    "lat": 21.672562,
    "lon": 105.210373,
    "type": "car"
  },
  {
    "address": "Quốc lộ 14E, xã Phước Gia, Huyện Hiệp Đức, Tỉnh Quảng Nam",
    "lat": 15.548322,
    "lon": 108.049614,
    "type": "car"
  },
  {
    "address": "Quốc lộ 1A, thôn Thuận An, xã Tam Anh Bắc, Huyện Núi Thành, Tỉnh Quảng Nam",
    "lat": 15.519467,
    "lon": 108.55648,
    "type": "car"
  },
  {
    "address": "Quốc lộ 1A, Xã Tam Đàn, Huyện Phú Ninh, Tỉnh Quảng Nam",
    "lat": 15.594161,
    "lon": 108.459373,
    "type": "car"
  },
  {
    "address": "Quốc lộ 1A, xã Bình An, Huyện Thăng Bình, Tỉnh Quảng Nam",
    "lat": 15.640549,
    "lon": 108.4291,
    "type": "car"
  },
  {
    "address": "Quốc lộ 1A, xã Kỳ Văn, Huyện Kỳ Anh, Tỉnh Hà Tĩnh",
    "lat": 18.108406,
    "lon": 106.268013,
    "type": "car"
  },
  {
    "address": "Đường tỉnh 284, xã Tiền Phong, Huyện Yên Dũng, Tỉnh Bắc Giang",
    "lat": 21.234346,
    "lon": 106.182022,
    "type": "car"
  },
  {
    "address": "Quốc lộ 3, thôn Cốc Po, xã Thanh Thịnh, Huyện Chợ Mới, Tỉnh Bắc Kạn",
    "lat": 21.92938,
    "lon": 105.796494,
    "type": "car"
  },
  {
    "address": "Thị trấn Xuân An, Huyện Nghi Xuân, Tỉnh Hà Tĩnh",
    "lat": 18.637226,
    "lon": 105.739677,
    "type": "car"
  },
  {
    "address": "Đường Phan Kính, xã Thuận Lộc, Thị xã Hồng Lĩnh, Tỉnh Hà Tĩnh",
    "lat": 18.488403,
    "lon": 105.696243,
    "type": "car"
  },
  {
    "address": "Quốc lộ 1A, km389, Khối Bắc Mỹ, phường Quỳnh Thiện, Thị xã Hoàng Mai, Tỉnh Nghệ An",
    "lat": 19.261259,
    "lon": 105.714424,
    "type": "car"
  },
  {
    "address": "Đường Hội Bài - Châu Pha, xã Tóc Tiên, Thị xã Phú Mỹ, Tỉnh Bà Rịa - Vũng Tàu",
    "lat": 10.541841,
    "lon": 107.108612,
    "type": "car"
  },
  {
    "address": "Quốc lộ 26, Km119+900 (phải tuyến), thôn 6A, xã Hòa An, Huyện Krông Pắc, Tỉnh Đắk Lắk",
    "lat": 12.715175,
    "lon": 108.337646,
    "type": "car"
  },
  {
    "address": "Quốc lộ 1A, khu vực Bả Canh, phường Đập Đá, Thị xã An Nhơn, Tỉnh Bình Định",
    "lat": 13.933877,
    "lon": 109.085045,
    "type": "car"
  },
  {
    "address": "Tỉnh lộ 8, Km 7, phân khu 8, Phường Tân Lợi, Thành phố Buôn Ma Thuột, Tỉnh Đắk Lắk",
    "lat": 12.734827,
    "lon": 108.078606,
    "type": "car"
  },
  {
    "address": "Vỉa hè tiếp giáp Vietcombank, Vinhomes Times City, 458 Minh Khai, phường Vĩnh Tuy, Quận Hai Bà Trưng, Thành phố Trung ương Hà Nội",
    "lat": 20.9981,
    "lon": 105.868149,
    "type": "car"
  },
  {
    "address": "Khu vực 3, thị trấn Mộ Đức, Huyện Mộ Đức, Tỉnh Quảng Ngãi",
    "lat": 14.948828,
    "lon": 108.890244,
    "type": "car"
  },
  {
    "address": "Quốc lộ 45, số 861, đường Nguyễn Trãi, phường Đông Tân, Thành phố Thanh Hóa, Tỉnh Thanh Hóa",
    "lat": 19.813646,
    "lon": 105.755196,
    "type": "car"
  },
  {
    "address": "Quốc lộ 1A, xã Triệu Lộc, Huyện Hậu Lộc, Tỉnh Thanh Hóa",
    "lat": 19.930279,
    "lon": 105.816101,
    "type": "car"
  },
  {
    "address": "Quốc lộ 14, xã Gia Lai, Huyện Chư Sê, Tỉnh Gia Lai",
    "lat": 13.759936,
    "lon": 108.02832,
    "type": "car"
  },
  {
    "address": "Đường tỉnh 389, xã Hiệp Thượng, phường Hiệp Sơn, Thị xã Kinh Môn, Tỉnh Hải Dương",
    "lat": 21.007311,
    "lon": 106.531425,
    "type": "car"
  },
  {
    "address": "Quốc lộ 37, Kilomet 63+80, Xã Đồng Lạc, Huyện Nam Sách, Tỉnh Hải Dương",
    "lat": 20.981407,
    "lon": 106.355049,
    "type": "car"
  },
  {
    "address": "Quốc lộ 37, thôn Linh Khê, xã Thanh Quang, Huyện Nam Sách, Tỉnh Hải Dương",
    "lat": 21.040003,
    "lon": 106.354713,
    "type": "car"
  },
  {
    "address": "Quốc lộ 5, km14, xã An Hưng, Huyện An Dương, Thành phố Trung ương Hải Phòng",
    "lat": 20.906406,
    "lon": 106.57476,
    "type": "car"
  },
  {
    "address": "Quốc lộ 1A, km1341+200 (trái tuyến), khu phố 1, Thị xã Đông Hòa, Tỉnh Phú Yên",
    "lat": 13.008715,
    "lon": 109.325111,
    "type": "car"
  },
  {
    "address": "Quốc lộ 60, Ấp Phú Nhơn, Huyện Châu Thành, Tỉnh Bến Tre",
    "lat": 10.310069,
    "lon": 106.348785,
    "type": "car"
  },
  {
    "address": "Quốc lộ 5, Hùng Vương, Quận Hồng Bàng, Thành phố Trung ương Hải Phòng",
    "lat": 20.86747,
    "lon": 106.6446,
    "type": "car"
  },
  {
    "address": "Quốc lộ 1A, thị trấn Diên Sanh, Huyện Hải Lăng, Tỉnh Quảng Trị",
    "lat": 16.684788,
    "lon": 107.251503,
    "type": "car"
  },
  {
    "address": "Quốc lộ 12B, xóm Thượng, xã Lạc Thịnh, Huyện Yên Thủy, Tỉnh Hoà Bình",
    "lat": 20.403189,
    "lon": 105.587524,
    "type": "car"
  },
  {
    "address": "Quốc lộ 4E, tổ 25, phường Bình Minh, Thành phố Lào Cai, Tỉnh Lào Cai",
    "lat": 22.412992,
    "lon": 104.029442,
    "type": "car"
  },
  {
    "address": "Số 191, Ấp Hưng Phước, Phường Hưng Định, Thành phố Thuận An, Tỉnh Bình Dương",
    "lat": 10.944978,
    "lon": 106.693047,
    "type": "car"
  },
  {
    "address": "Quốc lộ 1A, km1350+300 (phải tuyến), xã Hòa Xuân Đông, Thị xã Đông Hòa, Tỉnh Phú Yên",
    "lat": 12.935625,
    "lon": 109.360306,
    "type": "car"
  },
  {
    "address": "Quốc lộ 21A, Xã Nam Hồng, Huyện Nam Trực, Tỉnh Nam Định",
    "lat": 20.344715,
    "lon": 106.250069,
    "type": "car"
  },
  {
    "address": "Quốc lộ 47, khu công nghiệp Lễ Môn, đường Lê Lai, phường Quảng Hưng, Thành phố Thanh Hóa, Tỉnh Thanh Hóa",
    "lat": 19.783796,
    "lon": 105.806374,
    "type": "car"
  },
  {
    "address": "Đường Âu Cơ, Phường Bến Gót, Thành phố Việt Trì, Tỉnh Phú Thọ",
    "lat": 21.299839,
    "lon": 105.429123,
    "type": "car"
  },
  {
    "address": "Quốc lộ 1A, thôn 1, phường Xuân Lâm, Thị xã Nghi Sơn, Tỉnh Thanh Hóa",
    "lat": 19.406166,
    "lon": 105.752831,
    "type": "car"
  },
  {
    "address": "Quốc lộ 1A, thôn Khoa Trường, xã Tùng Lâm, Thị xã Nghi Sơn, Tỉnh Thanh Hóa",
    "lat": 19.373693,
    "lon": 105.734711,
    "type": "car"
  },
  {
    "address": "Quốc lộ 217, thôn Việt Yên, Huyện Vĩnh Lộc, Tỉnh Thanh Hóa",
    "lat": 20.01281,
    "lon": 105.696793,
    "type": "car"
  },
  {
    "address": "Quốc lộ 91, Khu vực Thới Hòa, Quận Thốt Nốt, Thành phố Trung ương Cần Thơ",
    "lat": 10.314475,
    "lon": 105.487892,
    "type": "car"
  },
  {
    "address": "Vincom Mega Mall Ocean Park, xã Dương Xá, Huyện Gia Lâm, Thành phố Trung ương Hà Nội",
    "lat": 20.993963,
    "lon": 105.958755,
    "type": "both"
  },
  {
    "address": "Đường Hoa Hồng, Vinhomes Riverside, phường Phúc Lợi, Quận Long Biên, Thành phố Trung ương Hà Nội",
    "lat": 21.044464,
    "lon": 105.916634,
    "type": "car"
  },
  {
    "address": "Quốc lộ 27C, km19+900 (phải tuyến), tổ 6, thị trấn Khánh Vĩnh, Huyện Khánh Vĩnh, Tỉnh Khánh Hòa",
    "lat": 12.272601,
    "lon": 108.919037,
    "type": "car"
  },
  {
    "address": "Ấp Thanh Mỹ 1, xã Thanh Đức, Huyện Long Hồ, Tỉnh Vĩnh Long",
    "lat": 10.258339,
    "lon": 105.997986,
    "type": "car"
  },
  {
    "address": "Số 195, Quốc lộ 1A, khu phố 3, thị trấn Bến Lức, Huyện Bến Lức, Tỉnh Long An",
    "lat": 10.636592,
    "lon": 106.486626,
    "type": "car"
  },
  {
    "address": "Số 222, đường Trần Hưng Đạo, phường Mỹ Thới, Thành phố Long Xuyên, Tỉnh An Giang",
    "lat": 10.354293,
    "lon": 105.458557,
    "type": "car"
  },
  {
    "address": "Quốc lộ N1, Ấp Vĩnh Hòa, xã Lạc Quới, Huyện Tri Tôn, Tỉnh An Giang",
    "lat": 10.509334,
    "lon": 104.87339,
    "type": "car"
  },
  {
    "address": "Quốc lộ National Road 27C, Km33+600 (left route), Cha Lien village27C, Km33+600 (trái tuyến), thôn Chà Liên, xã Liên Sang, Huyện Khánh Vĩnh, Tỉnh Khánh Hòa",
    "lat": 12.26482,
    "lon": 108.815758,
    "type": "car"
  },
  {
    "address": "Quốc lộ 14, thôn 2, xã Tâm Thắng, Huyện Cư Jút, Tỉnh Đắk Nông",
    "lat": 12.606372,
    "lon": 107.914902,
    "type": "car"
  },
  {
    "address": "Quốc lộ 1A, Km1343+100 (trái tuyến), Thị xã Đông Hòa, Tỉnh Phú Yên",
    "lat": 12.992738,
    "lon": 109.331772,
    "type": "both"
  },
  {
    "address": "Quốc lộ 1A, km1642, thôn Tịnh Mỹ, Huyện Bắc Bình, Tỉnh Bình Thuận",
    "lat": 11.220323,
    "lon": 108.48661,
    "type": "car"
  },
  {
    "address": "Số 224, đường Nguyễn Tất Thành, Thành phố Tuy Hoà, Tỉnh Phú Yên",
    "lat": 13.097609,
    "lon": 109.292496,
    "type": "car"
  },
  {
    "address": "Quốc lộ 1A, km1303+200 (trái tuyến), thị trấn Chí Thạnh, Huyện Tuy An, Tỉnh Phú Yên",
    "lat": 13.304165,
    "lon": 109.217636,
    "type": "car"
  },
  {
    "address": "Quốc lộ 1A, km1317+800 (phải tuyến), Huyện Tuy An, Tỉnh Phú Yên",
    "lat": 13.202163,
    "lon": 109.270325,
    "type": "car"
  },
  {
    "address": "Quốc lộ 29, km88+240 (phải tuyến), Huyện Sông Hinh, Tỉnh Phú Yên",
    "lat": 12.994979,
    "lon": 108.869987,
    "type": "car"
  },
  {
    "address": "Số 32C, đường Thống nhất, Thị xã La Gi, Tỉnh Bình Thuận",
    "lat": 10.660373,
    "lon": 107.772972,
    "type": "car"
  },
  {
    "address": "Quốc lộ 20, thị trấn Mađaguôi, Huyện Đạ Huoai, Tỉnh Lâm Đồng",
    "lat": 11.408669,
    "lon": 107.571548,
    "type": "car"
  },
  {
    "address": "Số 12, đường Nguyễn Biểu, tổ 16, thị trấn Liên Nghĩa, Huyện Đức Trọng, Tỉnh Lâm Đồng",
    "lat": 11.736433,
    "lon": 108.368385,
    "type": "car"
  },
  {
    "address": "Đường Quản Lộ - Phụng Hiệp, thị trấn Phước Long, Huyện Phước Long, Tỉnh Bạc Liêu",
    "lat": 9.426372,
    "lon": 105.456505,
    "type": "car"
  },
  {
    "address": "Quốc lộ 63, Ấp 2, xã Tân Lộc, Huyện Thới Bình, Tỉnh Cà Mau",
    "lat": 9.269986,
    "lon": 105.201202,
    "type": "car"
  },
  {
    "address": "Quốc lộ 61, số 180, ấp 07, Huyện Vị Thuỷ, Tỉnh Hậu Giang",
    "lat": 9.768003,
    "lon": 105.507843,
    "type": "car"
  },
  {
    "address": "Quốc lộ 1A, thị trấn Cái Tắc, Huyện Châu Thành A, Tỉnh Hậu Giang",
    "lat": 9.923635,
    "lon": 105.725288,
    "type": "car"
  },
  {
    "address": "Quốc lộ 61B, ấp Trương Hiền, xã Thạnh Trị, Huyện Thạnh Trị, Tỉnh Sóc Trăng",
    "lat": 9.438622,
    "lon": 105.737167,
    "type": "car"
  },
  {
    "address": "Thôn Phú An, Huyện Đức Trọng, Tỉnh Lâm Đồng",
    "lat": 11.665325,
    "lon": 108.314445,
    "type": "car"
  },
  {
    "address": "Quốc lộ 1A, Ấp Quý Phước, Xã Nhị Quý, Thị xã Cai Lậy, Tỉnh Tiền Giang",
    "lat": 10.402847,
    "lon": 106.169525,
    "type": "car"
  },
  {
    "address": "Phố 6, Phường Quảng Hưng, Thành phố Thanh Hóa, Tỉnh Thanh Hóa",
    "lat": 19.779818,
    "lon": 105.822823,
    "type": "car"
  },
  {
    "address": "Quốc lộ 23B, xã Tiên Dương, Huyện Đông Anh, Thành phố Trung ương Hà Nội",
    "lat": 21.148256,
    "lon": 105.836739,
    "type": "car"
  },
  {
    "address": "Thôn Đồng Kho, Xã Đồng Trúc, Huyện Thạch Thất, Thành phố Trung ương Hà Nội",
    "lat": 20.988539,
    "lon": 105.568901,
    "type": "car"
  },
  {
    "address": "Đường Nguyễn Tất Thành, Thành phố Việt Trì, Tỉnh Phú Thọ",
    "lat": 21.310738,
    "lon": 105.419792,
    "type": "car"
  },
  {
    "address": "Số 1 đường Hà Nội, Quận Hồng Bàng, Thành phố Trung ương Hải Phòng",
    "lat": 20.871593,
    "lon": 106.654007,
    "type": "car"
  },
  {
    "address": "Đường Trần Hưng Đạo, Phường Hải Cảng, Thành phố Quy Nhơn, Tỉnh Bình Định",
    "lat": 13.773233,
    "lon": 109.241913,
    "type": "car"
  },
  {
    "address": "Cửa hàng xăng dầu, Huyện Thạch Hà, Tỉnh Hà Tĩnh",
    "lat": 18.365505,
    "lon": 105.865959,
    "type": "car"
  },
  {
    "address": "Cửa hàng xăng dầu, Thành phố Hà Tĩnh, Tỉnh Hà Tĩnh",
    "lat": 18.339903,
    "lon": 105.881889,
    "type": "car"
  },
  {
    "address": "Đường Nguyễn Văn Linh, Khu vực Bình Trung, Phường Long Hòa, Quận Bình Thuỷ, Thành phố Trung ương Cần Thơ",
    "lat": 10.044335,
    "lon": 105.735138,
    "type": "car"
  },
  {
    "address": "Khóm 7, Phường 7, Thành phố Cà Mau, Tỉnh Cà Mau",
    "lat": 9.17032,
    "lon": 105.153931,
    "type": "car"
  },
  {
    "address": "Quốc lộ 18A, Phường Hà Khẩu, Thành phố Hạ Long, Tỉnh Quảng Ninh",
    "lat": 20.957066,
    "lon": 106.963158,
    "type": "car"
  },
  {
    "address": "Đường Phan Trọng Tuệ, Xã Tam Hiệp, Huyện Thanh Trì, Thành phố Trung ương Hà Nội",
    "lat": 20.946259,
    "lon": 105.828873,
    "type": "car"
  },
  {
    "address": "Thôn 4, Xã Đông Dư, Huyện Gia Lâm, Thành phố Trung ương Hà Nội",
    "lat": 20.997543,
    "lon": 105.919746,
    "type": "car"
  },
  {
    "address": "Thôn Giao Tự, Xã Kim Sơn, Huyện Gia Lâm, Thành phố Trung ương Hà Nội",
    "lat": 21.02696,
    "lon": 105.995338,
    "type": "car"
  },
  {
    "address": "Thị trấn Hương Canh, Huyện Bình Xuyên, Tỉnh Vĩnh Phúc",
    "lat": 21.279316,
    "lon": 105.646553,
    "type": "car"
  },
  {
    "address": "Phường Phúc Thắng, Thành phố Phúc Yên, Tỉnh Vĩnh Phúc",
    "lat": 21.23662,
    "lon": 105.715919,
    "type": "car"
  },
  {
    "address": "Xã Hồ Sơn, Huyện Tam Đảo, Tỉnh Vĩnh Phúc",
    "lat": 21.412249,
    "lon": 105.603065,
    "type": "car"
  },
  {
    "address": "Thị trấn Gia Khánh, Huyện Bình Xuyên, Tỉnh Vĩnh Phúc",
    "lat": 21.35858,
    "lon": 105.626663,
    "type": "car"
  },
  {
    "address": "Thị trấn Đức Đạo, Huyện Bình Xuyên, Tỉnh Vĩnh Phúc",
    "lat": 21.24748,
    "lon": 105.673714,
    "type": "car"
  },
  {
    "address": "Xã Vân Hội, Huyện Tam Dương, Tỉnh Vĩnh Phúc",
    "lat": 21.312357,
    "lon": 105.546448,
    "type": "car"
  },
  {
    "address": "Quốc lộ 17, Xã Nhân Thắng, Huyện Gia Bình, Tỉnh Bắc Ninh",
    "lat": 21.06978,
    "lon": 106.241753,
    "type": "car"
  },
  {
    "address": "Xóm 1, xã Cao Sơn, huyện Anh Sơn, tỉnh Nghệ An, Huyện Anh Sơn, Tỉnh Nghệ An",
    "lat": 18.897552,
    "lon": 105.165382,
    "type": "car"
  },
  {
    "address": "Số 2470, đường Hùng Vương, Thành phố Việt Trì, Tỉnh Phú Thọ",
    "lat": 21.342621,
    "lon": 105.362556,
    "type": "car"
  },
  {
    "address": "Cửa hàng xăng dầu Petrolimex Phú Thọ Số 04, Thành phố Việt Trì, Tỉnh Phú Thọ",
    "lat": 21.31579,
    "lon": 105.392197,
    "type": "car"
  },
  {
    "address": "Quốc lộ 32, Xã Vạn Xuân, Huyện Tam Nông, Tỉnh Phú Thọ",
    "lat": 21.284365,
    "lon": 105.256805,
    "type": "car"
  },
  {
    "address": "Cửa hàng xăng dầu Petrolimex Phú Thọ Số 14, Huyện Thanh Thuỷ, Tỉnh Phú Thọ",
    "lat": 21.176094,
    "lon": 105.285576,
    "type": "car"
  },
  {
    "address": "Quốc lộ 2, Xã Chí Đám, Huyện Đoan Hùng, Tỉnh Phú Thọ",
    "lat": 21.647243,
    "lon": 105.196327,
    "type": "car"
  },
  {
    "address": "Quốc lộ 32C, Xã Hiền Lương, Huyện Hạ Hoà, Tỉnh Phú Thọ",
    "lat": 21.607336,
    "lon": 104.919891,
    "type": "car"
  },
  {
    "address": "Cửa hàng xăng dầu Petrolimex Phú Thọ Số 37, Huyện Tân Sơn, Tỉnh Phú Thọ",
    "lat": 21.26989,
    "lon": 104.912781,
    "type": "car"
  },
  {
    "address": "Cửa hàng xăng dầu Petrolimex Phú Thọ Số 38, Huyện Thanh Thuỷ, Tỉnh Phú Thọ",
    "lat": 21.112741,
    "lon": 105.31456,
    "type": "car"
  },
  {
    "address": "Cửa hàng xăng dầu Petrolimex Phú Thọ Số 39, Huyện Cẩm Khê, Tỉnh Phú Thọ",
    "lat": 21.425566,
    "lon": 105.143341,
    "type": "car"
  },
  {
    "address": "Quốc lộ 32A, Thị trấn Thanh Sơn, Huyện Thanh Sơn, Tỉnh Phú Thọ",
    "lat": 21.227034,
    "lon": 105.200912,
    "type": "car"
  },
  {
    "address": "Quốc lộ 2, Xã Tiêu Sơn, Huyện Đoan Hùng, Tỉnh Phú Thọ",
    "lat": 21.577019,
    "lon": 105.187119,
    "type": "car"
  },
  {
    "address": "Cửa hàng xăng dầu Petrolimex Phú Thọ Số 45, Thị xã Phú Thọ, Tỉnh Phú Thọ",
    "lat": 21.427588,
    "lon": 105.216698,
    "type": "car"
  },
  {
    "address": "Quốc lộ 70B, Xã Đồng Thịnh, Huyện Yên Lập, Tỉnh Phú Thọ",
    "lat": 21.345097,
    "lon": 105.059799,
    "type": "car"
  },
  {
    "address": "Đường Hùng Vương, Thị xã Phú Thọ, Tỉnh Phú Thọ",
    "lat": 21.421867,
    "lon": 105.240356,
    "type": "car"
  },
  {
    "address": "Quốc lộ 32C, Xã Sơn Vi, Huyện Lâm Thao, Tỉnh Phú Thọ",
    "lat": 21.298899,
    "lon": 105.303268,
    "type": "car"
  },
  {
    "address": "Đường tỉnh 321C, xã Văn Bán, Huyện Cẩm Khê, Tỉnh Phú Thọ",
    "lat": 21.442896,
    "lon": 105.060722,
    "type": "car"
  },
  {
    "address": "Phường Phùng Chí Kiên, Thành phố Bắc Kạn, Tỉnh Bắc Kạn",
    "lat": 22.135588,
    "lon": 105.829506,
    "type": "car"
  },
  {
    "address": "Thị Trấn Phủ Thông, Huyện Bạch Thông, Tỉnh Bắc Kạn",
    "lat": 22.268738,
    "lon": 105.880257,
    "type": "car"
  },
  {
    "address": "Xã Nông Hạ, Huyện Chợ Mới, Tỉnh Bắc Kạn",
    "lat": 21.98637,
    "lon": 105.818542,
    "type": "car"
  },
  {
    "address": "Thị Trấn Chợ Rã, Huyện Ba Bể, Tỉnh Bắc Kạn",
    "lat": 22.452433,
    "lon": 105.733444,
    "type": "car"
  },
  {
    "address": "Ấp Phú An, Huyện Thoại Sơn, Tỉnh An Giang",
    "lat": 10.364898,
    "lon": 105.385834,
    "type": "car"
  },
  {
    "address": "Quốc lộ 80, Thị trấn Lấp Vò, Huyện Lấp Vò, Tỉnh Đồng Tháp",
    "lat": 10.358697,
    "lon": 105.515495,
    "type": "car"
  },
  {
    "address": "Đường tỉnh 842, Huyện Tân Hồng, Tỉnh Đồng Tháp",
    "lat": 10.8212,
    "lon": 105.5205,
    "type": "car"
  },
  {
    "address": "Quốc lộ 30, Xã Phú Ninh, Huyện Tam Nông, Tỉnh Đồng Tháp",
    "lat": 10.693713,
    "lon": 105.381996,
    "type": "car"
  },
  {
    "address": "Quốc lộ 1, Thôn Phú Mỹ 1, Huyện Tuy Phước, Tỉnh Bình Định",
    "lat": 13.8636,
    "lon": 109.131409,
    "type": "car"
  },
  {
    "address": "Quốc lộ 19, Thôn 2, Huyện Tây Sơn, Tỉnh Bình Định",
    "lat": 13.890105,
    "lon": 108.978745,
    "type": "car"
  },
  {
    "address": "Thôn Mục, Huyện Sơn Động, Tỉnh Bắc Giang",
    "lat": 21.265308,
    "lon": 106.90155,
    "type": "car"
  },
  {
    "address": "Số 490, đường Xương Giang, Thành phố Bắc Giang, Tỉnh Bắc Giang",
    "lat": 21.287437,
    "lon": 106.206085,
    "type": "car"
  },
  {
    "address": "Km 108+650, Quốc lộ 1A, Huyện Lạng Giang, Tỉnh Bắc Giang",
    "lat": 21.328976,
    "lon": 106.250031,
    "type": "car"
  },
  {
    "address": "Km 96+000 Quốc lộ 31, Huyện Lục Ngạn, Tỉnh Bắc Giang",
    "lat": 21.38826,
    "lon": 106.748619,
    "type": "car"
  },
  {
    "address": "Tỉnh lộ 38, Ấp Thào Lạng, Thành phố Bạc Liêu, Tỉnh Bạc Liêu",
    "lat": 9.309561,
    "lon": 105.795326,
    "type": "car"
  },
  {
    "address": "Quốc lộ 14, Ấp 4, Huyện Đồng Phú, Tỉnh Bình Phước",
    "lat": 11.598628,
    "lon": 106.987015,
    "type": "car"
  },
  {
    "address": "Thôn 9, Huyện Đức Linh, Tỉnh Bình Thuận",
    "lat": 11.146358,
    "lon": 107.505135,
    "type": "car"
  },
  {
    "address": "Võ Xu, Huyện Đức Linh, Tỉnh Bình Thuận",
    "lat": 11.186645,
    "lon": 107.562042,
    "type": "car"
  },
  {
    "address": "Quốc lộ 1A, Huyện Hàm Tân, Tỉnh Bình Thuận",
    "lat": 10.845168,
    "lon": 107.614334,
    "type": "car"
  },
  {
    "address": "Quốc lộ 1A, Huyện Tuy Phong, Tỉnh Bình Thuận",
    "lat": 11.269735,
    "lon": 108.732269,
    "type": "car"
  },
  {
    "address": "Quốc lộ 1A, Huyện Tuy Phong, Tỉnh Bình Thuận",
    "lat": 11.309027,
    "lon": 108.748329,
    "type": "car"
  },
  {
    "address": "Số 2, Đường Trần Hưng Đạo, Phường Phú Trinh, Thành phố Phan Thiết, Tỉnh Bình Thuận",
    "lat": 10.940171,
    "lon": 108.103378,
    "type": "car"
  },
  {
    "address": "Thôn 4, Huyện Ngọc Hồi, Tỉnh Kon Tum",
    "lat": 14.696959,
    "lon": 107.702888,
    "type": "car"
  },
  {
    "address": "Thôn Hòa Bình, Huyện Chư Prông, Tỉnh Gia Lai",
    "lat": 13.85776,
    "lon": 107.928162,
    "type": "car"
  },
  {
    "address": "Thôn Hợp Thắng, Huyện Chư Prông, Tỉnh Gia Lai",
    "lat": 13.745993,
    "lon": 107.860374,
    "type": "car"
  },
  {
    "address": "Tổ dân phố 1, Huyện Ia Grai, Tỉnh Gia Lai",
    "lat": 13.949191,
    "lon": 107.82254,
    "type": "car"
  },
  {
    "address": "Ấp Tiên Đông Vàm, Huyện Châu Thành, Tỉnh Bến Tre",
    "lat": 10.276313,
    "lon": 106.264626,
    "type": "car"
  },
  {
    "address": "Ấp 6, Huyện Giồng Trôm, Tỉnh Bến Tre",
    "lat": 10.148883,
    "lon": 106.516411,
    "type": "car"
  },
  {
    "address": "Quốc lộ 3, Huyện Quảng Hòa, Tỉnh Cao Bằng",
    "lat": 22.688318,
    "lon": 106.432182,
    "type": "car"
  },
  {
    "address": "Quốc lộ 3, Huyện Hoà An, Tỉnh Cao Bằng",
    "lat": 22.628756,
    "lon": 106.185188,
    "type": "car"
  },
  {
    "address": "Thị trấn Tà Lùng, Huyện Quảng Hòa, Tỉnh Cao Bằng",
    "lat": 22.490255,
    "lon": 106.570389,
    "type": "car"
  },
  {
    "address": "Quốc lộ 34B, Huyện Trùng Khánh, Tỉnh Cao Bằng",
    "lat": 22.805264,
    "lon": 106.331795,
    "type": "car"
  },
  {
    "address": "Quốc lộ 34B, Huyện Hoà An, Tỉnh Cao Bằng",
    "lat": 22.614828,
    "lon": 106.301468,
    "type": "car"
  },
  {
    "address": "Phường 7, Thành phố Cà Mau, Tỉnh Cà Mau",
    "lat": 9.166437,
    "lon": 105.15625,
    "type": "car"
  },
  {
    "address": "Ấp Cái Rắn, Huyện Cái Nước, Tỉnh Cà Mau",
    "lat": 9.076882,
    "lon": 105.061424,
    "type": "car"
  },
  {
    "address": "Ấp Sở Tại, Huyện Cái Nước, Tỉnh Cà Mau",
    "lat": 9.114454,
    "lon": 105.104851,
    "type": "car"
  },
  {
    "address": "Ấp Công Nghiệp,, Huyện Trần Văn Thời, Tỉnh Cà Mau",
    "lat": 9.067883,
    "lon": 104.970604,
    "type": "car"
  },
  {
    "address": "Ấp 7, Huyện U Minh, Tỉnh Cà Mau",
    "lat": 9.207212,
    "lon": 105.071289,
    "type": "car"
  },
  {
    "address": "Quốc lộ 12, Thị xã Mường Lay, Tỉnh Điện Biên",
    "lat": 22.043905,
    "lon": 103.161865,
    "type": "car"
  },
  {
    "address": "Quốc lộ 12, Huyện Mường Chà, Tỉnh Điện Biên",
    "lat": 21.755373,
    "lon": 103.089561,
    "type": "car"
  },
  {
    "address": "Quốc lộ 279, Huyện Mường Ảng, Tỉnh Điện Biên",
    "lat": 21.521894,
    "lon": 103.230606,
    "type": "car"
  },
  {
    "address": "Quốc lộ 279, Thành phố Điện Biên Phủ, Tỉnh Điện Biên",
    "lat": 21.505318,
    "lon": 103.123169,
    "type": "car"
  },
  {
    "address": "Thôn Trung Tiến, Xã lâm Trung Thủy, Huyện Đức Thọ, Tỉnh Hà Tĩnh",
    "lat": 18.505913,
    "lon": 105.62429,
    "type": "car"
  },
  {
    "address": "Xã Sơn Lễ, Huyện Hương Sơn, Tỉnh Hà Tĩnh",
    "lat": 18.572733,
    "lon": 105.445061,
    "type": "car"
  },
  {
    "address": "Thôn 5, Xã Ea Wer, Huyện Buôn Đôn, Tỉnh Đắk Lắk",
    "lat": 12.851243,
    "lon": 107.852898,
    "type": "car"
  },
  {
    "address": "Khối 4, Thị trấn Ea Kar, Huyện Ea Kar, Tỉnh Đắk Lắk",
    "lat": 12.831365,
    "lon": 108.439194,
    "type": "car"
  },
  {
    "address": "Đường Phạm Hùng, Xã Hòa Châu, Huyện Hòa Vang, Thành phố Trung ương Đà Nẵng",
    "lat": 16.00432,
    "lon": 108.207161,
    "type": "car"
  },
  {
    "address": "Thôn Trại Hồ, Xã Cổ Đông, Thị xã Sơn Tây, Thành phố Trung ương Hà Nội",
    "lat": 21.056032,
    "lon": 105.499855,
    "type": "car"
  },
  {
    "address": "Khu Công nghiệp Nội Bài, thôn Xuân Bách, xã Quang Tiến, Huyện Sóc Sơn, Thành phố Trung ương Hà Nội",
    "lat": 21.234112,
    "lon": 105.806038,
    "type": "car"
  },
  {
    "address": "Thôn Cầu Tây, Xã Hữu Văn, Huyện Chương Mỹ, Thành phố Trung ương Hà Nội",
    "lat": 20.84009,
    "lon": 105.639183,
    "type": "car"
  },
  {
    "address": "Quốc Lộ 9, Thôn An Thành 2, Huyện Hướng Hóa, Tỉnh Quảng Trị",
    "lat": 16.604221,
    "lon": 106.62812,
    "type": "car"
  },
  {
    "address": "157 Lý Thường Kiệt, phường Đông Lương, Thành phố Đông Hà, Tỉnh Quảng Trị",
    "lat": 16.801609,
    "lon": 107.108246,
    "type": "car"
  },
  {
    "address": "Km1081+435 Phải tuyến Đường Hồ Chí Minh, thị trấn Cam Lộ, Huyện Cam Lộ, Tỉnh Quảng Trị",
    "lat": 16.814322,
    "lon": 107.008804,
    "type": "car"
  },
  {
    "address": "Km72+250 Trái tuyến Quốc Lộ 9, xã Tân Lập, Huyện Hướng Hóa, Tỉnh Quảng Trị",
    "lat": 16.600681,
    "lon": 106.676575,
    "type": "car"
  },
  {
    "address": "Km 51+035 Quốc lộ 25, xã Ea Chà Rang, Huyện Sơn Hòa, Tỉnh Phú Yên",
    "lat": 13.092222,
    "lon": 108.921143,
    "type": "car"
  },
  {
    "address": "Xã Đức Xuyên, Huyện Krông Nô, Tỉnh Đắk Nông",
    "lat": 12.33453,
    "lon": 107.934013,
    "type": "car"
  },
  {
    "address": "Thôn3, xã Đắk Nia, Thành phố Gia Nghĩa, Tỉnh Đắk Nông",
    "lat": 11.960616,
    "lon": 107.739021,
    "type": "car"
  },
  {
    "address": "Cửa hàng xăng dầu DFC Trần Quốc Toản, Thành phố Cao Lãnh, Tỉnh Đồng Tháp",
    "lat": 10.506722,
    "lon": 105.56411,
    "type": "car"
  },
  {
    "address": "Xã Thuận Thành, Thị xã Phổ Yên, Tỉnh Thái Nguyên",
    "lat": 21.344191,
    "lon": 105.869759,
    "type": "car"
  },
  {
    "address": "Phường Lương Sơn, Thành phố Sông Công, Tỉnh Thái Nguyên",
    "lat": 21.493874,
    "lon": 105.87619,
    "type": "car"
  },
  {
    "address": "Phường Lương Sơn, Thành phố Sông Công, Tỉnh Thái Nguyên",
    "lat": 21.518641,
    "lon": 105.89077,
    "type": "car"
  },
  {
    "address": "Thị trấn Hương Sơn, Huyện Phú Bình, Tỉnh Thái Nguyên",
    "lat": 21.44426,
    "lon": 105.978271,
    "type": "car"
  },
  {
    "address": "Xã Hóa Thượng, Huyện Đồng Hỷ, Tỉnh Thái Nguyên",
    "lat": 21.654568,
    "lon": 105.831825,
    "type": "car"
  },
  {
    "address": "Phường Thịnh Đán, Thành phố Thái Nguyên, Tỉnh Thái Nguyên",
    "lat": 21.560741,
    "lon": 105.803024,
    "type": "car"
  },
  {
    "address": "Xã Phú Lạc, Huyện Đại Từ, Tỉnh Thái Nguyên",
    "lat": 21.692299,
    "lon": 105.597672,
    "type": "car"
  },
  {
    "address": "Quốc lộ 39A, xã Hồng Lĩnh, Huyện Hưng Hà, Tỉnh Thái Bình",
    "lat": 20.573158,
    "lon": 106.248428,
    "type": "car"
  },
  {
    "address": "Đường Tỉnh 454, xã Việt Thuận, Huyện Vũ Thư, Tỉnh Thái Bình",
    "lat": 20.393032,
    "lon": 106.346687,
    "type": "car"
  },
  {
    "address": "Km 677 + 300, đường Hồ Chí Minh, Xã Nghĩa Dũng, Huyện Tân Kỳ, Tỉnh Nghệ An",
    "lat": 19.110821,
    "lon": 105.339378,
    "type": "car"
  },
  {
    "address": "Xóm 5, Xã Hưng Thái, Huyện Hưng Nguyên, Tỉnh Nghệ An",
    "lat": 18.652031,
    "lon": 105.62912,
    "type": "car"
  },
  {
    "address": "Xóm 7, Quốc lộ 46B, xã Nam Giang, Huyện Nam Đàn, Tỉnh Nghệ An",
    "lat": 18.69499,
    "lon": 105.597267,
    "type": "car"
  },
  {
    "address": "Khối Tân Tiến, Thị trấn Nghĩa Đàn, Huyện Nghĩa Đàn, Tỉnh Nghệ An",
    "lat": 19.328966,
    "lon": 105.482368,
    "type": "car"
  },
  {
    "address": "Xóm Yên Trường, Xã Yên Sơn, Huyện Đô Lương, Tỉnh Nghệ An",
    "lat": 18.89924,
    "lon": 105.314415,
    "type": "car"
  },
  {
    "address": "Xã Minh Châu, Huyện Diễn Châu, Tỉnh Nghệ An",
    "lat": 18.961143,
    "lon": 105.545929,
    "type": "car"
  },
  {
    "address": "Quốc lộ 39B, Thị trấn Thanh Nê, Huyện Kiến Xương, Tỉnh Thái Bình",
    "lat": 20.392185,
    "lon": 106.447906,
    "type": "car"
  },
  {
    "address": "Tỉnh lộ 489C, Thị trấn Xuân Trường, Huyện Xuân Trường, Tỉnh Nam Định",
    "lat": 20.268488,
    "lon": 106.32901,
    "type": "car"
  },
  {
    "address": "KM 8+700 (Phải tuyến), Đường tỉnh 645, Thị trấn Phú Thứ, Huyện Tây Hoà, Tỉnh Phú Yên",
    "lat": 12.997182,
    "lon": 109.252739,
    "type": "car"
  },
  {
    "address": "KM 2+200 (Phải tuyến), Đường tỉnh 645, Xã Hòa Thành, Thị xã Đông Hòa, Tỉnh Phú Yên",
    "lat": 13.031029,
    "lon": 109.29406,
    "type": "car"
  },
  {
    "address": "Xã Bình Long, Huyện Bình Sơn, Tỉnh Quảng Ngãi",
    "lat": 15.270925,
    "lon": 108.774475,
    "type": "car"
  },
  {
    "address": "Quốc lộ 24B, xã Tịnh Khê, Thành phố Quảng Ngãi, Tỉnh Quảng Ngãi",
    "lat": 15.169682,
    "lon": 108.860649,
    "type": "car"
  },
  {
    "address": "Tuyến tránh Quốc lộ 1A, xã Đức Chánh, Huyện Mộ Đức, Tỉnh Quảng Ngãi",
    "lat": 14.992076,
    "lon": 108.883484,
    "type": "car"
  },
  {
    "address": "Quốc lộ 1A, Thôn Diên Trường, xã Phổ Khánh, Thị xã Đức Phổ, Tỉnh Quảng Ngãi",
    "lat": 14.709526,
    "lon": 109.045197,
    "type": "car"
  },
  {
    "address": "Quốc lộ 1A, Thôn Diên Trường, xã Phổ Khánh, Thị xã Đức Phổ, Tỉnh Quảng Ngãi",
    "lat": 14.711916,
    "lon": 109.041847,
    "type": "car"
  },
  {
    "address": "Quốc lộ 1A, Km1543, Thôn Gò Sạn, Xã Bắc Phong, Huyện Thuận Bắc, Tỉnh Ninh Thuận",
    "lat": 11.674799,
    "lon": 109.034958,
    "type": "car"
  },
  {
    "address": "Quốc lộ 27B, Khu phố 5, Thị trấn Tân Sơn, Huyện Ninh Sơn, Tỉnh Ninh Thuận",
    "lat": 11.782303,
    "lon": 108.799591,
    "type": "car"
  },
  {
    "address": "Quốc lộ 1A, Thôn Suối Hàng, xã Vạn Khánh, Huyện Vạn Ninh, Tỉnh Khánh Hòa",
    "lat": 12.755427,
    "lon": 109.276299,
    "type": "car"
  },
  {
    "address": "Số 579, đường Võ Chí Công, Phường Phú Hữu, Thành phố Thủ Đức, Thành phố Trung ương Hồ Chí Minh",
    "lat": 10.80351,
    "lon": 106.791969,
    "type": "car"
  },
  {
    "address": "Ấp Phước Thới, Xã Phước Long Thọ, Huyện Đất Đỏ, Tỉnh Bà Rịa - Vũng Tàu",
    "lat": 10.501619,
    "lon": 107.308342,
    "type": "car"
  },
  {
    "address": "Quốc lộ 51, Phường Kim Dinh, Thành phố Bà Rịa, Tỉnh Bà Rịa - Vũng Tàu",
    "lat": 10.49961,
    "lon": 107.13707,
    "type": "car"
  },
  {
    "address": "Quốc lộ 51, Phường Mỹ Xuân, Thị xã Phú Mỹ, Tỉnh Bà Rịa - Vũng Tàu",
    "lat": 10.627237,
    "lon": 107.052025,
    "type": "car"
  },
  {
    "address": "Tỉnh lộ 44B, Ấp Mỹ An, Xã Long Mỹ, Huyện Đất Đỏ, Tỉnh Bà Rịa - Vũng Tàu",
    "lat": 10.448426,
    "lon": 107.279373,
    "type": "car"
  },
  {
    "address": "Số 187, Quốc lộ 22B, ấp Cẩm Thắng, xã Cẩm Giang, Huyện Gò Dầu, Tỉnh Tây Ninh",
    "lat": 11.204569,
    "lon": 106.149849,
    "type": "car"
  },
  {
    "address": "Số 3A52/1, Tỉnh lộ 10, Ấp 3, xã Phạm Văn Hai, Huyện Bình Chánh, Thành phố Trung ương Hồ Chí Minh",
    "lat": 10.787244,
    "lon": 106.519379,
    "type": "car"
  },
  {
    "address": "Số 586, đường Rừng Sác, ấp Bình An, xã Bình Khánh, Huyện Cần Giờ, Thành phố Trung ương Hồ Chí Minh",
    "lat": 10.616811,
    "lon": 106.816071,
    "type": "car"
  },
  {
    "address": "Xã Trường Xuân, Huyện Tháp Mười, Tỉnh Đồng Tháp",
    "lat": 10.653722,
    "lon": 105.793137,
    "type": "car"
  },
  {
    "address": "Số 279, tỉnh lộ 833, ấp bình Hòa, xã Bình Tịnh, Huyện Tân Trụ, Tỉnh Long An",
    "lat": 10.515439,
    "lon": 106.505539,
    "type": "car"
  },
  {
    "address": "Đường tỉnh 868, ấp Kinh 12, xã Mỹ Phước Tây, Thị xã Cai Lậy, Tỉnh Tiền Giang",
    "lat": 10.489653,
    "lon": 106.097496,
    "type": "car"
  },
  {
    "address": "Quốc lộ 50, ấp Xã Lới, xã Tân Trung, Thị xã Gò Công, Tỉnh Tiền Giang",
    "lat": 10.42138,
    "lon": 106.671425,
    "type": "car"
  },
  {
    "address": "Ấp Đầu Giồng A, xã Mỹ Chánh, Huyện Châu Thành, Tỉnh Trà Vinh",
    "lat": 9.831347,
    "lon": 106.353249,
    "type": "car"
  },
  {
    "address": "Ấp Vĩnh Hưng, xã Long Đức, Thành phố Trà Vinh, Tỉnh Trà Vinh",
    "lat": 9.97556,
    "lon": 106.351357,
    "type": "car"
  },
  {
    "address": "Ấp Trà Ốp, xã Tân An, Huyện Càng Long, Tỉnh Trà Vinh",
    "lat": 9.917309,
    "lon": 106.139954,
    "type": "car"
  },
  {
    "address": "Ấp Mỹ Long, Xã Chánh An, Huyện Mang Thít, Tỉnh Vĩnh Long",
    "lat": 10.17126,
    "lon": 106.162552,
    "type": "car"
  },
  {
    "address": "Ấp An Hiệp, Xã Long An, Huyện Long Hồ, Tỉnh Vĩnh Long",
    "lat": 10.145463,
    "lon": 106.024292,
    "type": "car"
  },
  {
    "address": "219A tổ 4, Ấp Tân Qưới Đông, Xã Trường An, Thành phố Vĩnh Long, Tỉnh Vĩnh Long",
    "lat": 10.262947,
    "lon": 105.93515,
    "type": "car"
  },
  {
    "address": "Tổ 26, ấp An Thuận, xã Phú Đức, Huyện Long Hồ, Tỉnh Vĩnh Long",
    "lat": 10.187366,
    "lon": 106.000877,
    "type": "car"
  },
  {
    "address": "Thôn Hậu Lộc, Xã Tam Bình, Huyện Tam Bình, Tỉnh Vĩnh Long",
    "lat": 10.119707,
    "lon": 105.965279,
    "type": "car"
  },
  {
    "address": "Ấp Phú Xuân, Thị Trấn Mái Dầm, Huyện Châu Thành, Tỉnh Hậu Giang",
    "lat": 9.940362,
    "lon": 105.864853,
    "type": "car"
  },
  {
    "address": "Ấp 2, Thị Trấn Long Phú, Huyện Long Phú, Tỉnh Sóc Trăng",
    "lat": 9.611752,
    "lon": 106.135704,
    "type": "car"
  },
  {
    "address": "Phường Bình Đa, Thành phố Biên Hòa, Tỉnh Đồng Nai",
    "lat": 10.936018,
    "lon": 106.867958,
    "type": "car"
  },
  {
    "address": "Đường tỉnh 765, xã Xuân Định, Huyện Xuân Lộc, Tỉnh Đồng Nai",
    "lat": 10.824181,
    "lon": 107.364494,
    "type": "car"
  },
  {
    "address": "Quốc lộ 27C, xã Đạ Sar, Huyện Lạc Dương, Tỉnh Lâm Đồng",
    "lat": 12.086953,
    "lon": 108.53244,
    "type": "car"
  },
  {
    "address": "Thôn Đông Lâm, xã Đại Quang, Huyện Đại Lộc, Tỉnh Quảng Nam",
    "lat": 15.880931,
    "lon": 108.039886,
    "type": "car"
  },
  {
    "address": "Km1052+787 (Trái tuyến), Đường Hồ Chí Minh, Thị trấn Bến Quan, Huyện Vĩnh Linh, Tỉnh Quảng Trị",
    "lat": 17.024103,
    "lon": 106.901199,
    "type": "car"
  },
  {
    "address": "Phường An Đông, Thành phố Huế, Tỉnh Thừa Thiên Huế",
    "lat": 16.460539,
    "lon": 107.624802,
    "type": "car"
  },
  {
    "address": "Quốc lộ 1A, xã Lộc Tiến, Huyện Phú Lộc, Tỉnh Thừa Thiên Huế",
    "lat": 16.269842,
    "lon": 108.019943,
    "type": "car"
  },
  {
    "address": "Quốc lộ 1A, xã Phong An, Huyện Phong Điền, Tỉnh Thừa Thiên Huế",
    "lat": 16.550398,
    "lon": 107.435066,
    "type": "car"
  },
  {
    "address": "Xã A Ngo, Huyện A Lưới, Tỉnh Thừa Thiên Huế",
    "lat": 16.254625,
    "lon": 107.24791,
    "type": "car"
  },
  {
    "address": "Quốc lộ 1A, xã Lộc Trì, Huyện Phú Lộc, Tỉnh Thừa Thiên Huế",
    "lat": 16.278246,
    "lon": 107.899277,
    "type": "car"
  },
  {
    "address": "Xã Vinh Thanh, Huyện Phú Vang, Tỉnh Thừa Thiên Huế",
    "lat": 16.43767,
    "lon": 107.781105,
    "type": "car"
  },
  {
    "address": "Thị Trấn Phong Thổ, Huyện Phong Thổ, Tỉnh Lai Châu",
    "lat": 22.544077,
    "lon": 103.297798,
    "type": "car"
  },
  {
    "address": "Thị Trấn Than Uyên, Huyện Than Uyên, Tỉnh Lai Châu",
    "lat": 21.963835,
    "lon": 103.890129,
    "type": "car"
  },
  {
    "address": "Thị Trấn Tân Uyên, Huyện Tân Uyên, Tỉnh Lai Châu",
    "lat": 22.180819,
    "lon": 103.749031,
    "type": "car"
  },
  {
    "address": "Quốc lộ 32, Huyện Than Uyên, Tỉnh Lai Châu",
    "lat": 21.883875,
    "lon": 103.875809,
    "type": "car"
  },
  {
    "address": "Quốc lộ 12, Huyện Sìn Hồ, Tỉnh Lai Châu",
    "lat": 22.459921,
    "lon": 103.197433,
    "type": "car"
  },
  {
    "address": "Quốc lộ 4D, Đường Điện Biên Phủ, Phường Đoàn Kết, Thành phố Lai Châu, Tỉnh Lai Châu",
    "lat": 22.389643,
    "lon": 103.463829,
    "type": "car"
  },
  {
    "address": "Xã Nậm Tăm, Huyện Sìn Hồ, Tỉnh Lai Châu",
    "lat": 22.282166,
    "lon": 103.408096,
    "type": "car"
  },
  {
    "address": "Quốc lộ 4D, Xã San Thàng, Thành phố Lai Châu, Tỉnh Lai Châu",
    "lat": 22.38472,
    "lon": 103.490776,
    "type": "car"
  },
  {
    "address": "Xã Bản Bo, Huyện Tam Đường, Tỉnh Lai Châu",
    "lat": 22.285091,
    "lon": 103.672066,
    "type": "car"
  },
  {
    "address": "Xã Sơn Bình, Huyện Tam Đường, Tỉnh Lai Châu",
    "lat": 22.326864,
    "lon": 103.667107,
    "type": "car"
  },
  {
    "address": "Xã Chăn Nưa, Huyện Sìn Hồ, Tỉnh Lai Châu",
    "lat": 22.187107,
    "lon": 103.173958,
    "type": "car"
  },
  {
    "address": "Bản Chiềng Tè, xã Ít Ong, Huyện Mường La, Tỉnh Sơn La",
    "lat": 21.526957,
    "lon": 104.025085,
    "type": "car"
  },
  {
    "address": "Xã Tân Quang, Huyện Bắc Quang, Tỉnh Hà Giang",
    "lat": 22.5042,
    "lon": 104.876999,
    "type": "car"
  },
  {
    "address": "Quốc lộ 70, xã Phúc Khánh, Huyện Bảo Yên, Tỉnh Lào Cai",
    "lat": 22.193525,
    "lon": 104.564293,
    "type": "car"
  },
  {
    "address": "Xã Tả Phời, Thành phố Lào Cai, Tỉnh Lào Cai",
    "lat": 22.400192,
    "lon": 103.97934,
    "type": "car"
  },
  {
    "address": "Xã Hòa Mạc, Huyện Văn Bàn, Tỉnh Lào Cai",
    "lat": 22.08742,
    "lon": 104.20929,
    "type": "car"
  },
  {
    "address": "Quốc lộ 4D, Thôn Tòong Chú, Xã Cốc San, Thành phố Lào Cai, Tỉnh Lào Cai",
    "lat": 22.465073,
    "lon": 103.94297,
    "type": "car"
  },
  {
    "address": "Phường Lào Cai, Thành phố Lào Cai, Tỉnh Lào Cai",
    "lat": 22.518288,
    "lon": 104.000282,
    "type": "car"
  },
  {
    "address": "Xã Trung Sơn, Huyện Yên Sơn, Tỉnh Tuyên Quang",
    "lat": 21.876537,
    "lon": 105.431,
    "type": "car"
  },
  {
    "address": "Thôn Ngòi Nẻ, Thị Trấn Na Hang, Huyện Na Hang, Tỉnh Tuyên Quang",
    "lat": 22.322685,
    "lon": 105.369873,
    "type": "car"
  },
  {
    "address": "Tổ 11, phường Đồng Tâm, Thành phố Yên Bái, Tỉnh Yên Bái",
    "lat": 21.72337,
    "lon": 104.917877,
    "type": "car"
  },
  {
    "address": "Tổ Cang Nà, phường Trung Tâm, Thị xã Nghĩa Lộ, Tỉnh Yên Bái",
    "lat": 21.59639,
    "lon": 104.515526,
    "type": "car"
  },
  {
    "address": "Thôn Đồng Tâm, xã Liễu Đô, Huyện Lục Yên, Tỉnh Yên Bái",
    "lat": 22.111118,
    "lon": 104.795815,
    "type": "car"
  },
  {
    "address": "Thôn Tân Lập, xã Hán Đà, Huyện Yên Bình, Tỉnh Yên Bái",
    "lat": 21.721098,
    "lon": 105.071205,
    "type": "car"
  },
  {
    "address": "Thôn Ngọn Đồng, xã Hưng Khánh, Huyện Trấn Yên, Tỉnh Yên Bái",
    "lat": 21.578056,
    "lon": 104.760338,
    "type": "car"
  },
  {
    "address": "Xã Văn Tố, Huyện Tứ Kỳ, Tỉnh Hải Dương",
    "lat": 20.797144,
    "lon": 106.43705,
    "type": "car"
  },
  {
    "address": "Phường Tân Bình, Thành phố Hải Dương, Tỉnh Hải Dương",
    "lat": 20.926798,
    "lon": 106.314934,
    "type": "car"
  },
  {
    "address": "Thị trấn Kẻ Sặt, Huyện Bình Giang, Tỉnh Hải Dương",
    "lat": 20.908915,
    "lon": 106.150604,
    "type": "car"
  },
  {
    "address": "Phường Anh Dũng, Quận Dương Kinh, Thành phố Trung ương Hải Phòng",
    "lat": 20.810863,
    "lon": 106.702057,
    "type": "car"
  },
  {
    "address": "Quốc lộ 10, Xã Bắc sơn, Huyện An Dương, Thành phố Trung ương Hải Phòng",
    "lat": 20.880569,
    "lon": 106.5886,
    "type": "car"
  },
  {
    "address": "Thị trấn Cát Bà, Huyện Cát Hải, Thành phố Trung ương Hải Phòng",
    "lat": 20.738827,
    "lon": 107.031555,
    "type": "car"
  },
  {
    "address": "Xã Bắc Hưng, Huyện Tiên Lãng, Thành phố Trung ương Hải Phòng",
    "lat": 20.68082,
    "lon": 106.628799,
    "type": "car"
  },
  {
    "address": "Km 25+700, Quốc lộ 4A, Thôn Bản Vạc, Xã Trùng Quán, Huyện Văn Lãng, Tỉnh Lạng Sơn",
    "lat": 22.122066,
    "lon": 106.591652,
    "type": "car"
  },
  {
    "address": "Km 852+00 (Phải tuyến), Đường Hồ Chí Minh Đông, xã Hương Hóa, Huyện Tuyên Hóa, Tỉnh Quảng Bình",
    "lat": 18.049482,
    "lon": 105.838547,
    "type": "car"
  },
  {
    "address": "Km83+400 (Trái tuyến), Quốc lộ 29, khu phố 3, thị trấn Hai Riêng, Huyện Sông Hinh, Tỉnh Phú Yên",
    "lat": 12.985466,
    "lon": 108.90493,
    "type": "car"
  },
  {
    "address": "Số 55, Đường 30 Tháng 4, Phường Tạch Dừa, Thành phố Vũng Tàu, Tỉnh Bà Rịa - Vũng Tàu",
    "lat": 10.380315,
    "lon": 107.092484,
    "type": "car"
  },
  {
    "address": "Số 260, đường Nguyễn Huệ, ấp Bắc Sơn, Thị trấn Núi Sập, Huyện Thoại Sơn, Tỉnh An Giang",
    "lat": 10.27601,
    "lon": 105.269035,
    "type": "car"
  },
  {
    "address": "Thôn Đồng Bảng, Xã Đông Tân, Huyện Mai Châu, Tỉnh Hoà Bình",
    "lat": 20.71911,
    "lon": 104.998421,
    "type": "car"
  },
  {
    "address": "Quốc lộ 4G, Xã Mường Sai, Huyện Sông Mã, Tỉnh Sơn La",
    "lat": 20.971743,
    "lon": 103.995293,
    "type": "car"
  },
  {
    "address": "Quốc lộ 6, Xã Chiềng Hặc, Huyện Yên Châu, Tỉnh Sơn La",
    "lat": 21.018829,
    "lon": 104.378555,
    "type": "car"
  },
  {
    "address": "Thị trấn Bắc Yên, Huyện Bắc Yên, Tỉnh Sơn La",
    "lat": 21.24666,
    "lon": 104.445457,
    "type": "car"
  },
  {
    "address": "Quốc lộ 279, Xã Chiềng Ơn, Huyện Quỳnh Nhai, Tỉnh Sơn La",
    "lat": 21.700647,
    "lon": 103.615715,
    "type": "car"
  },
  {
    "address": "Tiểu khu 21, Thị trấn Hát Lót, Huyện Mai Sơn, Tỉnh Sơn La",
    "lat": 21.190208,
    "lon": 104.111313,
    "type": "car"
  },
  {
    "address": "Tổ 4, phường Chiềng Sinh, Thành phố Sơn La, Tỉnh Sơn La",
    "lat": 21.281446,
    "lon": 103.974716,
    "type": "car"
  },
  {
    "address": "Bản Nà Si, Thị trấn Hát Lót, Huyện Mai Sơn, Tỉnh Sơn La",
    "lat": 21.210943,
    "lon": 104.049568,
    "type": "car"
  },
  {
    "address": "Thôn Chợ Bến, Xã Thanh Cao, Huyện Lương Sơn, Tỉnh Hoà Bình",
    "lat": 20.681837,
    "lon": 105.665504,
    "type": "car"
  },
  {
    "address": "Tổ 4, Phường Dân Chủ, Thành phố Hòa Bình, Tỉnh Hoà Bình",
    "lat": 20.796906,
    "lon": 105.356613,
    "type": "car"
  },
  {
    "address": "Quốc lộ 4E, xã Sơn Hải, Huyện Bảo Thắng, Tỉnh Lào Cai",
    "lat": 22.334824,
    "lon": 104.164963,
    "type": "car"
  },
  {
    "address": "Thị trấn Tằng Lỏng, Huyện Bảo Thắng, Tỉnh Lào Cai",
    "lat": 22.300325,
    "lon": 104.130936,
    "type": "car"
  },
  {
    "address": "Xã Xuân Giao, Huyện Bảo Thắng, Tỉnh Lào Cai",
    "lat": 22.348438,
    "lon": 104.107285,
    "type": "car"
  },
  {
    "address": "Xã Sơn Thủy, Huyện Văn Bàn, Tỉnh Lào Cai",
    "lat": 22.126537,
    "lon": 104.275352,
    "type": "car"
  },
  {
    "address": "Quốc lộ 1A, Phường Tân Thạnh, Thành phố Tam Kỳ, Tỉnh Quảng Nam",
    "lat": 15.588044,
    "lon": 108.464561,
    "type": "car"
  },
  {
    "address": "Quốc lộ 1A, thôn Hòa Vân, xã Tam Nghĩa, Huyện Núi Thành, Tỉnh Quảng Nam",
    "lat": 15.382956,
    "lon": 108.714577,
    "type": "car"
  },
  {
    "address": "Phường Sở Dầu, Quận Hồng Bàng, Thành phố Trung ương Hải Phòng",
    "lat": 20.866112,
    "lon": 106.648216,
    "type": "car"
  },
  {
    "address": "Quốc lộ 18A, Phường Cẩm Sơn, Thành phố Cẩm Phả, Tỉnh Quảng Ninh",
    "lat": 21.004169,
    "lon": 107.307037,
    "type": "car"
  },
  {
    "address": "Km42, Tỉnh Lộ 1, Xã Krông Na, Huyện Buôn Đôn, Tỉnh Đắk Lắk",
    "lat": 12.878886,
    "lon": 107.794319,
    "type": "car"
  },
  {
    "address": "Buôn EaMtá, Xã EaBhok, Huyện Cư Kuin, Tỉnh Đắk Lắk",
    "lat": 12.579069,
    "lon": 108.150345,
    "type": "car"
  },
  {
    "address": "Tổ 5, Thị trấn KrôngNăng, Huyện Krông Năng, Tỉnh Đắk Lắk",
    "lat": 12.943674,
    "lon": 108.349915,
    "type": "car"
  },
  {
    "address": "Quốc lộ 14, Xã ĐăkLao, Huyện Đắk Mil, Tỉnh Đắk Nông",
    "lat": 12.444405,
    "lon": 107.600044,
    "type": "car"
  },
  {
    "address": "Quốc lộ 14, Tổ dân phố Tân Thịnh, Phường Quảng Thành, Thành phố Gia Nghĩa, Tỉnh Đắk Nông",
    "lat": 12.056391,
    "lon": 107.678993,
    "type": "car"
  },
  {
    "address": "Thôn 6, Xã Đắk Ru, Huyện Đắk R'Lấp, Tỉnh Đắk Nông",
    "lat": 11.913491,
    "lon": 107.399834,
    "type": "car"
  },
  {
    "address": "Thôn Long Đồng, Xã Ngọc Thiện, Huyện Tân Yên, Tỉnh Bắc Giang",
    "lat": 21.330082,
    "lon": 106.09967,
    "type": "car"
  },
  {
    "address": "Thị trấn Tây Yên Tử, Huyện Sơn Động, Tỉnh Bắc Giang",
    "lat": 21.200766,
    "lon": 106.709152,
    "type": "car"
  },
  {
    "address": "Số 190 ấp Bình Tạo A, xã Trung An, Thành phố Mỹ Tho, Tỉnh Tiền Giang",
    "lat": 10.345225,
    "lon": 106.324448,
    "type": "car"
  },
  {
    "address": "Thị Trấn Định An, Huyện Trà Cú, Tỉnh Trà Vinh",
    "lat": 9.620705,
    "lon": 106.295128,
    "type": "car"
  },
  {
    "address": "Quốc lộ 57B, Ấp Hưng Chánh, xã Châu Hưng, Huyện Bình Đại, Tỉnh Bến Tre",
    "lat": 10.24976,
    "lon": 106.500854,
    "type": "car"
  },
  {
    "address": "Đường tỉnh 866B, ấp Tân Quới, xã Tân Lý Đông, Huyện Châu Thành, Tỉnh Tiền Giang",
    "lat": 10.478415,
    "lon": 106.327316,
    "type": "car"
  },
  {
    "address": "Quốc lộ 53, Ấp Bến Có, Xã Nguyệt Hóa, Huyện Châu Thành, Tỉnh Trà Vinh",
    "lat": 9.926426,
    "lon": 106.297684,
    "type": "car"
  },
  {
    "address": "Ấp Chợ, Xã Hiếu Tử, Huyện Tiểu Cần, Tỉnh Trà Vinh",
    "lat": 9.858295,
    "lon": 106.205521,
    "type": "car"
  },
  {
    "address": "Ấp Láng Cháo, Thị xã Duyên Hải, Tỉnh Trà Vinh",
    "lat": 9.60187,
    "lon": 106.528328,
    "type": "car"
  },
  {
    "address": "Phường Long Thạnh Mỹ, Thành phố Thủ Đức, Thành phố Trung ương Hồ Chí Minh",
    "lat": 10.83788,
    "lon": 106.838501,
    "type": "car"
  },
  {
    "address": "Văn Phương, Huyện Nho Quan, Tỉnh Ninh Bình",
    "lat": 20.290739,
    "lon": 105.755302,
    "type": "car"
  },
  {
    "address": "Yên Xuân, Huyện Tuyên Hóa, Tỉnh Quảng Bình",
    "lat": 17.88415,
    "lon": 106.0112,
    "type": "car"
  },
  {
    "address": "Xuân Phú, Huyện Quan Hóa, Tỉnh Thanh Hóa",
    "lat": 20.363729,
    "lon": 105.1474,
    "type": "car"
  },
  {
    "address": "Trung Hạ, Huyện Quan Sơn, Tỉnh Thanh Hóa",
    "lat": 20.30435,
    "lon": 105.053902,
    "type": "car"
  },
  {
    "address": "Kilomet 61, Na Lộc, Huyện Quan Sơn, Tỉnh Thanh Hóa",
    "lat": 20.274469,
    "lon": 104.787201,
    "type": "car"
  },
  {
    "address": "Hải Hà, Huyện Kỳ Anh, Tỉnh Hà Tĩnh",
    "lat": 18.00963,
    "lon": 106.1828,
    "type": "car"
  },
  {
    "address": "Kilomet 1731, Quốc lộ 1A, Khu phố Nam Tân, Huyện Hàm Thuận Nam, Tỉnh Bình Thuận",
    "lat": 10.8538,
    "lon": 107.887802,
    "type": "car"
  },
  {
    "address": "La Dạ, Huyện Hàm Thuận Bắc, Tỉnh Bình Thuận",
    "lat": 11.24466,
    "lon": 107.859009,
    "type": "car"
  },
  {
    "address": "Long Trường, Thành phố Thủ Đức, Thành phố Trung ương Hồ Chí Minh",
    "lat": 10.79998,
    "lon": 106.809998,
    "type": "car"
  },
  {
    "address": "Quốc lộ 80, Phường Tân Bình, Huyện Châu Thành, Tỉnh Đồng Tháp",
    "lat": 10.27278,
    "lon": 105.8144,
    "type": "car"
  },
  {
    "address": "Đường tỉnh 825, Phường Bình Lợi, Huyện Bình Chánh, Thành phố Trung ương Hồ Chí Minh",
    "lat": 10.79216,
    "lon": 106.5084,
    "type": "car"
  },
  {
    "address": "Thửa đất số 1571, ấp 3, Xã Tân Lập, Huyện Mộc Hóa, Tỉnh Long An",
    "lat": 10.72401,
    "lon": 105.977898,
    "type": "car"
  },
  {
    "address": "Ấp 1, Huyện Thạnh Hóa, Tỉnh Long An",
    "lat": 10.63078,
    "lon": 106.1091,
    "type": "car"
  },
  {
    "address": "Hoà Ân, Huyện Cầu Kè, Tỉnh Trà Vinh",
    "lat": 9.893381,
    "lon": 106.0625,
    "type": "car"
  },
  {
    "address": "Đường tỉnh 616, Thị trấn Trà My, Huyện Bắc Trà My, Tỉnh Quảng Nam",
    "lat": 15.35652,
    "lon": 108.235001,
    "type": "car"
  },
  {
    "address": "Cẩm Hà, Thành phố Hội An, Tỉnh Quảng Nam",
    "lat": 15.9022,
    "lon": 108.337898,
    "type": "car"
  },
  {
    "address": "Quốc lộ 14E, Bình Lâm, Huyện Hiệp Đức, Tỉnh Quảng Nam",
    "lat": 15.61593,
    "lon": 108.217499,
    "type": "both"
  },
  {
    "address": "Tam Mỹ Đông, Huyện Núi Thành, Tỉnh Quảng Nam",
    "lat": 15.41585,
    "lon": 108.644997,
    "type": "both"
  },
  {
    "address": "Quốc lộ 14C, Ia Nan, Huyện Đức Cơ, Tỉnh Gia Lai",
    "lat": 13.72293,
    "lon": 107.600403,
    "type": "car"
  },
  {
    "address": "Quốc lộ 20, Lộc An, Huyện Bảo Lâm, Tỉnh Lâm Đồng",
    "lat": 11.53415,
    "lon": 107.883499,
    "type": "car"
  },
  {
    "address": "Tân Thượng, Huyện Di Linh, Tỉnh Lâm Đồng",
    "lat": 11.63688,
    "lon": 108.020103,
    "type": "car"
  },
  {
    "address": "Quốc lộ 20, Tân Nghĩa, Huyện Di Linh, Tỉnh Lâm Đồng",
    "lat": 11.61361,
    "lon": 108.109901,
    "type": "car"
  },
  {
    "address": "Hòa Hải, Quận Ngũ Hành Sơn, Thành phố Trung ương Đà Nẵng",
    "lat": 15.993195,
    "lon": 108.269356,
    "type": "car"
  },
  {
    "address": "Xã Đạ Rsal, Huyện Đam Rông, Tỉnh Lâm Đồng",
    "lat": 12.15882,
    "lon": 108.137001,
    "type": "car"
  },
  {
    "address": "Thôn 9, Tân Lâm, Huyện Di Linh, Tỉnh Lâm Đồng",
    "lat": 11.68023,
    "lon": 107.9804,
    "type": "car"
  },
  {
    "address": "Ninh Loan, Huyện Đức Trọng, Tỉnh Lâm Đồng",
    "lat": 11.54859,
    "lon": 108.348297,
    "type": "car"
  },
  {
    "address": "Số 66 , Thôn Đam Pao, Huyện Lâm Hà, Tỉnh Lâm Đồng",
    "lat": 11.80672,
    "lon": 108.225304,
    "type": "car"
  },
  {
    "address": "Đại Mạch, Huyện Đông Anh, Thành phố Trung ương Hà Nội",
    "lat": 21.132446,
    "lon": 105.760117,
    "type": "car"
  },
  {
    "address": "Nà Nghịu, Huyện Sông Mã, Tỉnh Sơn La",
    "lat": 21.04038,
    "lon": 103.746902,
    "type": "car"
  },
  {
    "address": "Tỉnh lộ 107, Mường Giàng, Huyện Quỳnh Nhai, Tỉnh Sơn La",
    "lat": 21.649429,
    "lon": 103.628502,
    "type": "car"
  },
  {
    "address": "Đường tỉnh 153, Bảo Nhai, Huyện Bắc Hà, Tỉnh Lào Cai",
    "lat": 22.393881,
    "lon": 104.238701,
    "type": "car"
  },
  {
    "address": "Liên Hiệp, Huyện Bắc Quang, Tỉnh Hà Giang",
    "lat": 22.3818,
    "lon": 105.052696,
    "type": "car"
  },
  {
    "address": "Quốc lộ 279, Tân Trịnh, Huyện Quang Bình, Tỉnh Hà Giang",
    "lat": 22.4125,
    "lon": 104.716904,
    "type": "car"
  },
  {
    "address": "Thị trấn Mèo Vạc, Huyện Mèo Vạc, Tỉnh Hà Giang",
    "lat": 23.174801,
    "lon": 105.411598,
    "type": "car"
  },
  {
    "address": "Phúc ứng, Huyện Sơn Dương, Tỉnh Tuyên Quang",
    "lat": 21.6422,
    "lon": 105.382797,
    "type": "car"
  },
  {
    "address": "Thôn Văn Hưng, Cát Thịnh, Huyện Văn Chấn, Tỉnh Yên Bái",
    "lat": 21.507509,
    "lon": 104.703201,
    "type": "car"
  },
  {
    "address": "Cẩm Hải, Thành phố Cẩm Phả, Tỉnh Quảng Ninh",
    "lat": 21.120939,
    "lon": 107.3414,
    "type": "car"
  },
  {
    "address": "Tỉnh lộ 295, Huyện Tân Yên, Tỉnh Bắc Giang",
    "lat": 21.373421,
    "lon": 106.093399,
    "type": "car"
  },
  {
    "address": "QL34, Xóm Bản Ngà, Huyện Bảo Lạc, Tỉnh Cao Bằng",
    "lat": 22.778521,
    "lon": 105.744598,
    "type": "car"
  },
  {
    "address": "Quốc Lộ 3, Huyện Na Rì, Tỉnh Bắc Kạn",
    "lat": 22.172701,
    "lon": 106.142303,
    "type": "car"
  },
  {
    "address": "Khu 6, Huyện Tam Nông, Tỉnh Phú Thọ",
    "lat": 21.25864,
    "lon": 105.208298,
    "type": "car"
  },
  {
    "address": "Số 107, Đường Lũy Bán Bích, Phường Tân Thới Hoà, Quận Tân Phú, Thành phố Trung ương Hồ Chí Minh",
    "lat": 10.762754,
    "lon": 106.632042,
    "type": "car"
  },
  {
    "address": "Đường tỉnh 948, Xã An Hảo, Huyện Tịnh Biên, Tỉnh An Giang",
    "lat": 10.489027,
    "lon": 105.022804,
    "type": "car"
  },
  {
    "address": "Xã An Nhơn, Huyện Châu Thành, Tỉnh Đồng Tháp",
    "lat": 10.260806,
    "lon": 105.862434,
    "type": "car"
  },
  {
    "address": "Số 281, Quốc lộ 22, Xã Phước Hiệp, Củ Chi, HCM, Huyện Củ Chi, Thành phố Trung ương Hồ Chí Minh",
    "lat": 10.983057,
    "lon": 106.460777,
    "type": "car"
  },
  {
    "address": "Xã Xuân Thới Sơn, Huyện Hóc Môn, Thành phố Trung ương Hồ Chí Minh",
    "lat": 10.872758,
    "lon": 106.532021,
    "type": "car"
  },
  {
    "address": "Xã Đồn Xá, Huyện Bình Lục, Tỉnh Hà Nam",
    "lat": 20.510113,
    "lon": 106.002357,
    "type": "car"
  },
  {
    "address": "Xã Bình Yên, Huyện Thạch Thất, Thành phố Trung ương Hà Nội",
    "lat": 21.03385,
    "lon": 105.543907,
    "type": "car"
  },
  {
    "address": "Quốc lộ 1A, Xã Mỹ Đức Đông, Huyện Cái Bè, Tỉnh Tiền Giang",
    "lat": 10.357634,
    "lon": 105.961914,
    "type": "car"
  },
  {
    "address": "Đường tỉnh 865, Xã Phước Lập, Huyện Tân Phước, Tỉnh Tiền Giang",
    "lat": 10.474162,
    "lon": 106.18428,
    "type": "car"
  },
  {
    "address": "Xã Thanh Hòa, Thị xã Cai Lậy, Tỉnh Tiền Giang",
    "lat": 10.411912,
    "lon": 106.098518,
    "type": "car"
  },
  {
    "address": "Phường Long Trường, Thành phố Thủ Đức, Thành phố Trung ương Hồ Chí Minh",
    "lat": 10.78781,
    "lon": 106.843269,
    "type": "car"
  },
  {
    "address": "Ấp Vĩnh Phước 2, Thị trấn Vĩnh Thuận, Huyện Vĩnh Thuận, Tỉnh Kiên Giang",
    "lat": 9.524628,
    "lon": 105.244621,
    "type": "car"
  },
  {
    "address": "Tổ 6, Ấp Lung Lớn, xã Kiên Bình, Huyện Kiên Lương, Tỉnh Kiên Giang",
    "lat": 10.283936,
    "lon": 104.734695,
    "type": "car"
  },
  {
    "address": "Quốc lộ 20, xã Hiệp Thạnh, Huyện Đức Trọng, Tỉnh Lâm Đồng",
    "lat": 11.79009,
    "lon": 108.422997,
    "type": "car"
  },
  {
    "address": "Khu phố 2, Phường Pháo Đài, Thành phố Hà Tiên, Tỉnh Kiên Giang",
    "lat": 10.383694,
    "lon": 104.478256,
    "type": "car"
  },
  {
    "address": "Thôn Hàng Hải, xã Gung Ré, Huyện Di Linh, Tỉnh Lâm Đồng",
    "lat": 11.523106,
    "lon": 108.065643,
    "type": "car"
  },
  {
    "address": "Thị Trấn Đắk Glei, Huyện Đắk Glei, Tỉnh Kon Tum",
    "lat": 15.083069,
    "lon": 107.737488,
    "type": "car"
  },
  {
    "address": "Thanh Bình, xã Ia Peng, Huyện Phú Thiện, Tỉnh Gia Lai",
    "lat": 13.472674,
    "lon": 108.381241,
    "type": "car"
  },
  {
    "address": "Tỉnh lộ 668, xã Chư Băh, Thị xã Ayun Pa, Tỉnh Gia Lai",
    "lat": 13.384719,
    "lon": 108.41935,
    "type": "car"
  },
  {
    "address": "Quốc lộ 12A, xã Liên Trường, Huyện Quảng Trạch, Tỉnh Quảng Bình",
    "lat": 17.781221,
    "lon": 106.307411,
    "type": "car"
  },
  {
    "address": "Xã Bình Chuẩn, Huyện Con Cuông, Tỉnh Nghệ An",
    "lat": 19.309889,
    "lon": 104.920486,
    "type": "car"
  },
  {
    "address": "Xã Lâu Thượng, Huyện Võ Nhai, Tỉnh Thái Nguyên",
    "lat": 21.727165,
    "lon": 105.984932,
    "type": "car"
  },
  {
    "address": "Xã Quang Phục, Huyện Tứ Kỳ, Tỉnh Hải Dương",
    "lat": 20.84075,
    "lon": 106.379036,
    "type": "car"
  },
  {
    "address": "Thôn Châu Thịnh, xã Tùng Châu, Huyện Đức Thọ, Tỉnh Hà Tĩnh",
    "lat": 18.570717,
    "lon": 105.590652,
    "type": "car"
  },
  {
    "address": "Thôn 5, Thị trấn Hoàn Lão, Huyện Bố Trạch, Tỉnh Quảng Bình",
    "lat": 17.600315,
    "lon": 106.504005,
    "type": "car"
  },
  {
    "address": "Xóm 7, Tỉnh lộ 3, xã Thạch Khê, Huyện Thạch Hà, Tỉnh Hà Tĩnh",
    "lat": 18.381081,
    "lon": 105.946312,
    "type": "car"
  },
  {
    "address": "Kilomet 5, Quốc lộ 21A, thôn Tân Phú , Xã Sơn Đông, Thị xã Sơn Tây, Thành phố Trung ương Hà Nội",
    "lat": 21.093596,
    "lon": 105.499191,
    "type": "car"
  },
  {
    "address": "Tổ dân phố 1, Đường Nguyễn Hoành Từ, phường Đại Nài, Thành phố Hà Tĩnh, Tỉnh Hà Tĩnh",
    "lat": 18.31312,
    "lon": 105.904678,
    "type": "car"
  },
  {
    "address": "Xã Phú An, Thị xã Bến Cát, Tỉnh Bình Dương",
    "lat": 11.052571,
    "lon": 106.604218,
    "type": "car"
  },
  {
    "address": "Xã Hiệp Thuận, Huyện Phúc Thọ, Thành phố Trung ương Hà Nội",
    "lat": 21.086502,
    "lon": 105.638458,
    "type": "car"
  },
  {
    "address": "Đường tỉnh 419, Thị trấn Quốc Oai, Huyện Quốc Oai, Thành phố Trung ương Hà Nội",
    "lat": 20.990183,
    "lon": 105.646889,
    "type": "car"
  },
  {
    "address": "01,Đường Võ Nguyên Giáp, Thị trấn Măng Đen, Huyện Kon Plông, Tỉnh Kon Tum",
    "lat": 14.616617,
    "lon": 108.292839,
    "type": "car"
  },
  {
    "address": "Xã Tam Kỳ, Huyện Kim Thành, Tỉnh Hải Dương",
    "lat": 20.88356,
    "lon": 106.540405,
    "type": "car"
  },
  {
    "address": "Thôn Nhân Mỹ, Xã Thanh Vân, Huyện Tam Dương, Tỉnh Vĩnh Phúc",
    "lat": 21.331591,
    "lon": 105.564331,
    "type": "car"
  },
  {
    "address": "Thôn Suối Đá, Xã Phước Tiến, Huyện Bác Ái, Tỉnh Ninh Thuận",
    "lat": 11.838402,
    "lon": 108.821182,
    "type": "car"
  },
  {
    "address": "Xã Nghĩa Lạc, Huyện Nghĩa Hưng, Tỉnh Nam Định",
    "lat": 20.127398,
    "lon": 106.181656,
    "type": "car"
  },
  {
    "address": "Thị trấn Thanh Chương, Huyện Thanh Chương, Tỉnh Nghệ An",
    "lat": 18.793604,
    "lon": 105.335304,
    "type": "car"
  },
  {
    "address": "Tổ 5, Thị trấn Nguyên Bình, Huyện Nguyên Bình, Tỉnh Cao Bằng",
    "lat": 22.653236,
    "lon": 105.951714,
    "type": "car"
  },
  {
    "address": "Thôn Ngải, Xã Quảng Nghiệp, Huyện Tứ Kỳ, Tỉnh Hải Dương",
    "lat": 20.810543,
    "lon": 106.324898,
    "type": "car"
  },
  {
    "address": "Quốc Lộ 39B, Xã Đồng Quang, Huyện Gia Lộc, Tỉnh Hải Dương",
    "lat": 20.812119,
    "lon": 106.280106,
    "type": "car"
  },
  {
    "address": "Quốc lộ 32, Xã Mồ Dề, Huyện Mù Căng Chải, Tỉnh Yên Bái",
    "lat": 21.857533,
    "lon": 104.072151,
    "type": "car"
  },
  {
    "address": "Đường Xa lộ Đại Hàn, Phường Bình Hưng Hòa B, Quận Bình Tân, Thành phố Trung ương Hồ Chí Minh",
    "lat": 10.818939,
    "lon": 106.601562,
    "type": "car"
  },
  {
    "address": "Quốc lộ 63, xã Đông Hòa, Huyện An Minh, Tỉnh Kiên Giang",
    "lat": 9.744986,
    "lon": 105.018372,
    "type": "car"
  },
  {
    "address": "Xã Thanh Nguyên, Huyện Thanh Liêm, Tỉnh Hà Nam",
    "lat": 20.425751,
    "lon": 105.917427,
    "type": "car"
  },
  {
    "address": "Đường tỉnh 830, Xã An Thạnh, Huyện Bến Lức, Tỉnh Long An",
    "lat": 10.664748,
    "lon": 106.459312,
    "type": "car"
  },
  {
    "address": "Ấp Giao Hòa Chợ, xã Giao Thạnh, Huyện Thạnh Phú, Tỉnh Bến Tre",
    "lat": 9.88621,
    "lon": 106.606918,
    "type": "car"
  },
  {
    "address": "Số 428, Quốc lộ 91, Khu Long Thạnh 2, phường Thốt Nốt, Quận Thốt Nốt, Thành phố Trung ương Cần Thơ",
    "lat": 10.278381,
    "lon": 105.527496,
    "type": "car"
  },
  {
    "address": "Ấp Vĩnh Quy, xã Vĩnh Trinh, Huyện Vĩnh Thạnh, Thành phố Trung ương Cần Thơ",
    "lat": 10.285705,
    "lon": 105.45034,
    "type": "car"
  },
  {
    "address": "Thôn Bình Phú, xã Yên Phú, Huyện Yên Mỹ, Tỉnh Hưng Yên",
    "lat": 20.873875,
    "lon": 105.991692,
    "type": "car"
  },
  {
    "address": "Thôn Thiện Mỹ, Xã Yên Mỹ, Huyện Ý Yên, Tỉnh Nam Định",
    "lat": 20.36051,
    "lon": 106.048553,
    "type": "car"
  },
  {
    "address": "Kilomet 8+350, trái tuyến, đường Ngã Ba Voi đi Sầm Sơn, xã Quảng Minh, Thành phố Sầm Sơn, Tỉnh Thanh Hóa",
    "lat": 19.732559,
    "lon": 105.834488,
    "type": "car"
  },
  {
    "address": "Đường Lê Viết Thuật, Xã Hưng Lộc, Thành phố Vinh, Tỉnh Nghệ An",
    "lat": 18.70619,
    "lon": 105.708527,
    "type": "car"
  },
  {
    "address": "Đường N5, Xã Hiến Sơn, Huyện Đô Lương, Tỉnh Nghệ An",
    "lat": 18.854269,
    "lon": 105.419022,
    "type": "car"
  },
  {
    "address": "Quốc lộ 10, Xã Khánh An, Huyện Yên Khánh, Tỉnh Ninh Bình",
    "lat": 20.224821,
    "lon": 106.0317,
    "type": "car"
  },
  {
    "address": "Khóm 5, Thị trấn Tiểu Cần, Huyện Tiểu Cần, Tỉnh Trà Vinh",
    "lat": 9.80344,
    "lon": 106.199303,
    "type": "car"
  },
  {
    "address": "Quốc lộ 30, Khóm 1, Thị trấn Sa Rài, Huyện Tân Hồng, Tỉnh Đồng Tháp",
    "lat": 10.878515,
    "lon": 105.444199,
    "type": "car"
  },
  {
    "address": "Bản Tân Đà, Xã Tường Phong, Huyện Phù Yên, Tỉnh Sơn La",
    "lat": 21.111753,
    "lon": 104.676018,
    "type": "car"
  },
  {
    "address": "Thôn Mải, Xã Tân Sỏi, Huyện Yên Thế, Tỉnh Bắc Giang",
    "lat": 21.441278,
    "lon": 106.152977,
    "type": "car"
  },
  {
    "address": "Ấp Mỹ Cẩm B, Xã Mỹ Hòa, Huyện Cầu Ngang, Tỉnh Trà Vinh",
    "lat": 9.814797,
    "lon": 106.45797,
    "type": "car"
  },
  {
    "address": "Xã Phú Cường, Huyện Tam Nông, Tỉnh Đồng Tháp",
    "lat": 10.670253,
    "lon": 105.593285,
    "type": "car"
  },
  {
    "address": "Số 137, Quốc lộ 30, Xã Mỹ Quý, Huyện Tháp Mười, Tỉnh Đồng Tháp",
    "lat": 10.35509,
    "lon": 105.771873,
    "type": "car"
  },
  {
    "address": "Cạnh phà Năng Gù, Xã Bình Thạnh Đông, Huyện Phú Tân, Tỉnh An Giang",
    "lat": 10.55829,
    "lon": 105.296158,
    "type": "car"
  },
  {
    "address": "Ấp An Khánh, Xã An Thạnh Trung, Huyện Chợ Mới, Tỉnh An Giang",
    "lat": 10.41344,
    "lon": 105.497307,
    "type": "car"
  },
  {
    "address": "Đường tỉnh 942, Xã Mỹ Tân, Huyện Chợ Mới, Tỉnh An Giang",
    "lat": 10.48752,
    "lon": 105.49865,
    "type": "car"
  },
  {
    "address": "Quốc lộ 80, Thị trấn Lai Vung, Huyện Lai Vung, Tỉnh Đồng Tháp",
    "lat": 10.302309,
    "lon": 105.651207,
    "type": "car"
  },
  {
    "address": "Xóm Thái Sơn, Xã Quyết Thắng, Thành phố Thái Nguyên, Tỉnh Thái Nguyên",
    "lat": 21.581165,
    "lon": 105.792023,
    "type": "car"
  },
  {
    "address": "Xã Nghĩa Lợi, Huyện Nghĩa Hưng, Tỉnh Nam Định",
    "lat": 19.991264,
    "lon": 106.160248,
    "type": "car"
  },
  {
    "address": "Đường tỉnh 819, Xã Vĩnh Thạnh, Huyện Tân Hưng, Tỉnh Long An",
    "lat": 10.82601,
    "lon": 105.673752,
    "type": "car"
  },
  {
    "address": "Xã Tú Nang, Huyện Yên Châu, Tỉnh Sơn La",
    "lat": 20.927485,
    "lon": 104.472321,
    "type": "car"
  },
  {
    "address": "Thôn Cầu Bài, Xã Tân Hưng, Huyện Lạng Giang, Tỉnh Bắc Giang",
    "lat": 21.350971,
    "lon": 106.315567,
    "type": "car"
  },
  {
    "address": "Xã Tân Lập, Huyện Yên Mỹ, Tỉnh Hưng Yên",
    "lat": 20.897066,
    "lon": 106.05291,
    "type": "car"
  },
  {
    "address": "Khối 5 TT Anh Sơn, Huyện Anh Sơn, Tỉnh Nghệ An",
    "lat": 18.930693,
    "lon": 105.089714,
    "type": "car"
  },
  {
    "address": "Thôn Bằng Anh, Xã Tân Dân, Thành phố Hạ Long, Tỉnh Quảng Ninh",
    "lat": 21.151011,
    "lon": 106.873047,
    "type": "car"
  },
  {
    "address": "Bản Mạ, Xã Tú Lệ, Huyện Văn Chấn, Tỉnh Yên Bái",
    "lat": 21.788374,
    "lon": 104.312103,
    "type": "car"
  },
  {
    "address": "Xã Nậm Dịch, Huyện Hoàng Su Phì, Tỉnh Hà Giang",
    "lat": 22.657101,
    "lon": 104.703499,
    "type": "car"
  },
  {
    "address": "Thôn Thủy khê, Xã Chi Khê, Huyện Con Cuông, Tỉnh Nghệ An",
    "lat": 19.067066,
    "lon": 104.844353,
    "type": "car"
  },
  {
    "address": "Thôn Đăk Lim,Xã Đăk Ơ, Huyện Bù gia Mập, Huyện Bù Gia Mập, Tỉnh Bình Phước",
    "lat": 12.044145,
    "lon": 107.089355,
    "type": "car"
  },
  {
    "address": "Đường tỉnh 725, Xã B' Lá, Huyện Bảo Lâm, Tỉnh Lâm Đồng",
    "lat": 11.680458,
    "lon": 107.74424,
    "type": "car"
  },
  {
    "address": "Xã Đạ Kho, Huyện Đạ Tẻh, Tỉnh Lâm Đồng",
    "lat": 11.495114,
    "lon": 107.488365,
    "type": "car"
  },
  {
    "address": "Số 400, Quốc Lộ 22, Ấp Tân Lập, Xã Tân Thông Hội, Huyện Củ Chi, Thành phố Trung ương Hồ Chí Minh",
    "lat": 10.961507,
    "lon": 106.501617,
    "type": "car"
  },
  {
    "address": "Quốc lộ 14G, Tỉnh lộ 604, Xã Jơ Ngây, Huyện Đông Giang, Tỉnh Quảng Nam",
    "lat": 15.960783,
    "lon": 107.921867,
    "type": "car"
  },
  {
    "address": "Ấp Bùng Binh, Xã Hưng Thuận, Thị xã Trảng Bàng, Tỉnh Tây Ninh",
    "lat": 11.149253,
    "lon": 106.425789,
    "type": "car"
  },
  {
    "address": "Xã Thượng Quận, Thị xã Kinh Môn, Tỉnh Hải Dương",
    "lat": 20.999113,
    "lon": 106.501976,
    "type": "car"
  },
  {
    "address": "Thôn Quý Dương, Xã Tân Trường, Huyện Cẩm Giàng, Tỉnh Hải Dương",
    "lat": 20.935633,
    "lon": 106.227654,
    "type": "car"
  },
  {
    "address": "Quốc lộ 91, Khóm Hoà Hưng, Thị trấn Nhà Bàng, Huyện Tịnh Biên, Tỉnh An Giang",
    "lat": 10.626907,
    "lon": 105.0093,
    "type": "car"
  },
  {
    "address": "Đường tỉnh 281, Thị trấn Thứa, Huyện Lương Tài, Tỉnh Bắc Ninh",
    "lat": 21.027466,
    "lon": 106.218178,
    "type": "car"
  },
  {
    "address": "Tỉnh lộ 883, Ấp Long Hòa, Xã Giao Long, Huyện Châu Thành, Tỉnh Bến Tre",
    "lat": 10.296966,
    "lon": 106.414963,
    "type": "car"
  },
  {
    "address": "Quốc lộ 57B, Ấp 4, Xã Định Trung. Bình Đại, Huyện Bình Đại, Tỉnh Bến Tre",
    "lat": 10.208194,
    "lon": 106.617668,
    "type": "car"
  },
  {
    "address": "Số 204, Đường Nguyễn Thị Định, Thị trấn Giồng Trôm, Huyện Giồng Trôm, Tỉnh Bến Tre",
    "lat": 10.156331,
    "lon": 106.504669,
    "type": "car"
  },
  {
    "address": "Quảng Thanh, Huyện Thuỷ Nguyên, Thành phố Trung ương Hải Phòng",
    "lat": 20.96516,
    "lon": 106.610161,
    "type": "car"
  },
  {
    "address": "Quốc lộ 26, Thị xã Ninh Hòa, Tỉnh Khánh Hòa",
    "lat": 12.540141,
    "lon": 108.998863,
    "type": "car"
  },
  {
    "address": "Măng Then, Xã Đăk Man, Huyện Đăk Glei, Kon Tum, Huyện Đắk Glei, Tỉnh Kon Tum",
    "lat": 15.224957,
    "lon": 107.731018,
    "type": "car"
  },
  {
    "address": "Số 99, Quốc lộ 1A, Xã Mai Pha, Thành phố Lạng Sơn, Tỉnh Lạng Sơn",
    "lat": 21.837284,
    "lon": 106.778755,
    "type": "car"
  },
  {
    "address": "Thôn Thanh Liêm, Xã Nhơn An, Thị xã An Nhơn, Tỉnh Bình Định",
    "lat": 13.926663,
    "lon": 109.104202,
    "type": "car"
  },
  {
    "address": "Xã Hải Sơn, Thành phố Móng Cái, Tỉnh Quảng Ninh",
    "lat": 21.646395,
    "lon": 107.776665,
    "type": "car"
  },
  {
    "address": "Xã Vĩnh Kiên, Huyện Yên Bình, Tỉnh Yên Bái",
    "lat": 21.76939,
    "lon": 105.042297,
    "type": "car"
  },
  {
    "address": "Đường Hùng Vương, Thành phố Tân An, Tỉnh Long An",
    "lat": 10.534055,
    "lon": 106.410133,
    "type": "car"
  },
  {
    "address": "Thôn 1, xã Diên Phú, Huyện Diên Khánh, Tỉnh Khánh Hòa",
    "lat": 12.279725,
    "lon": 109.130333,
    "type": "car"
  },
  {
    "address": "Ấp An Lộc, Xã An Phước, Huyện Tân Hồng, Tỉnh Đồng Tháp",
    "lat": 10.813854,
    "lon": 105.442284,
    "type": "car"
  },
  {
    "address": "Thửa đất số 176, tờ bản đồ số 34, ấp Tân Bình 1, xã Tân Thuận Bình, chợ Gạo, Huyện Chợ Gạo, Tỉnh Tiền Giang",
    "lat": 10.370222,
    "lon": 106.478363,
    "type": "car"
  },
  {
    "address": "Đường Hải Âu 12, xã Kiêu Kỵ, Huyện Gia Lâm, Thành phố Trung ương Hà Nội",
    "lat": 20.99118,
    "lon": 105.957336,
    "type": "car"
  },
  {
    "address": "Phường Tây Mỗ, Quận Nam Từ Liêm, Thành phố Trung ương Hà Nội",
    "lat": 21.007307,
    "lon": 105.750954,
    "type": "car"
  },
  {
    "address": "Phường Long Thạnh Mỹ, Thành phố Thủ Đức, Thành phố Trung ương Hồ Chí Minh",
    "lat": 10.845688,
    "lon": 106.84317,
    "type": "car"
  },
  {
    "address": "Thành phố Nha Trang, Thành phố Nha Trang, Tỉnh Khánh Hòa",
    "lat": 12.2016,
    "lon": 109.214203,
    "type": "car"
  },
  {
    "address": "Thành phố Phú Quốc, Thành phố Phú Quốc, Tỉnh Kiên Giang",
    "lat": 10.36119,
    "lon": 103.846268,
    "type": "car"
  },
  {
    "address": "Số 458, Đường Minh Khai, Phường Vĩnh Tuy, Quận Hai Bà Trưng, Thành phố Trung ương Hà Nội",
    "lat": 20.994469,
    "lon": 105.867401,
    "type": "car"
  },
  {
    "address": "Phường 22, Quận Bình Thạnh, Thành phố Trung ương Hồ Chí Minh",
    "lat": 10.79693,
    "lon": 106.721497,
    "type": "car"
  },
  {
    "address": "Bãi đỗ xe nhanh, mặt giáp BT B18-01, Vinhomes Gardenia, số 16 Đường Hàm Nghi, phường Mỹ Đình 2, Quận Nam Từ Liêm, Thành phố Trung ương Hà Nội",
    "lat": 21.034445,
    "lon": 105.761375,
    "type": "car"
  },
  {
    "address": "Bãi đỗ xe ngoài trời, phía trước Vincom Plaza Trần Phú, số 78-80, đường Trần Phú, phường Lộc Thọ, Thành phố Nha Trang, Tỉnh Khánh Hòa",
    "lat": 12.232974,
    "lon": 109.197571,
    "type": "car"
  },
  {
    "address": "Số 132, Tỉnh Lộ 784, Khu Phố Ninh Lợi, Phường Ninh Thạnh, Thành phố Tây Ninh, Tỉnh Tây Ninh",
    "lat": 11.352505,
    "lon": 106.152084,
    "type": "car"
  },
  {
    "address": "Cửa hàng xăng dầu Petrolimex Thanh Hóa Số 03, Thành phố Thanh Hóa, Tỉnh Thanh Hóa",
    "lat": 19.828161,
    "lon": 105.779175,
    "type": "car"
  },
  {
    "address": "Cửa hàng xăng dầu Petrolimex Thanh Hóa Số 05, Thành phố Thanh Hóa, Tỉnh Thanh Hóa",
    "lat": 19.817614,
    "lon": 105.743774,
    "type": "car"
  },
  {
    "address": "Cửa hàng xăng dầu Petrolimex Thanh Hóa Số 12, Thành phố Thanh Hóa, Tỉnh Thanh Hóa",
    "lat": 19.765907,
    "lon": 105.795006,
    "type": "car"
  },
  {
    "address": "Cửa hàng xăng dầu Petrolimex Thanh Hóa Số 14, Thành phố Thanh Hóa, Tỉnh Thanh Hóa",
    "lat": 19.753052,
    "lon": 105.761826,
    "type": "car"
  },